 {

  "data": [{

    "name":"138",
    "id":"248704888503043",
    "lat":"48.8504486",
    "lng":"2.3794401",
    "address":"138 rue du Faubourg Saint Antoine 75012 Paris",
    "pins": ["bieres","terrasse","lebonbon"],
    "picture":"https://scontent.xx.fbcdn.net/hprofile-xfp1/v/t1.0-1/p50x50/10245451_745841448789382_8899560960115613577_n.jpg?oh=07b37b825a99ef6ad1492ebb6c67a961&oe=567FF919"
  },
   {
    "name":"1936",
    "id":"777012829044555",
    "lat":"48.9027834525",
    "lng":"2.36667387375",
    "address":"146 Avenue des Magasins Généraux 93200 Saint-Denis",
    "pins": ["timeout","terrasse","bieres"],
    "picture":"https://scontent.xx.fbcdn.net/hprofile-xfp1/v/l/t1.0-1/p50x50/11021126_803499019729269_886215376176522167_n.jpg?oh=14e54764f49de51c09f16955c53ea554&oe=5676CC48"
  },
   {
    "name":"1979",
    "id":"181411385241608",
    "lat":"48.8623591666",
    "lng":"2.34225528685",
    "address":"49 rue berger 75001 Paris",
    "pins": ["timeout","terrasse","bieres"],
    "picture":"https://fbcdn-profile-a.akamaihd.net/hprofile-ak-xfa1/v/t1.0-1/c42.41.507.507/s50x50/420141_300991523283593_1147594692_n.jpg?oh=2501adaab3145fcad9daed7f9d19ec56&oe=567B26EF&__gda__=1450742495_f4fee4738572522706d1e34f9e1314a0"
  },
   {
    "name":"10 Bar",
    "id":"762816580453575",
    "lat":"48.8510513",
    "lng":"2.3385899",
    "address":"10, rue de l'Odéon 75006 Paris",
    "pins": ["timeout","terrasse","bieres"],
    "picture":"https://fbcdn-profile-a.akamaihd.net/hprofile-ak-xpf1/v/t1.0-1/p50x50/1947744_762819853786581_2434971132673095134_n.jpg?oh=d724324bbe400fcb9f3d7f34d2175644&oe=5667CE36&__gda__=1449625418_d25e74818c14c2828cd2a3cbc9d550ef"
  },
   {
    "name":"110 de Taillevent",
    "id":"225541577557640",
    "lat":"48.8759384",
    "lng":"2.3028901",
    "address":"195, Rue du Faubourg Saint-Honoré 75008 Paris",
    "pins": ["lebonbon","timeout","bieres"],
    "picture":"https://fbcdn-profile-a.akamaihd.net/hprofile-ak-xta1/t5.0-1/592042_225541577557640_645012129_q.jpg"
  },
   {
    "name":"130 Club - Caves Parisiennes",
    "id":"174164036113735",
    "lat":"48.8598873757",
    "lng":"2.34403330877",
    "address":"130 rue Rivoli 75001 Paris",
    "pins": ["lebonbon","terrasse","bieres"],
    "picture":"https://fbcdn-profile-a.akamaihd.net/hprofile-ak-xpt1/v/t1.0-1/c10.0.50.50/p50x50/11072626_348085832054887_8751118454112801993_n.jpg?oh=277b9b742ff8874ebf2646a5ed7bed72&oe=5678B277&__gda__=1449095701_170008f27e647604dd74355eaa82f217"
  },
   {
    "name":"25 Degrés Est",
    "id":"162962367048210",
    "lat":"48.8839510496",
    "lng":"2.370664376",
    "address":"Place de la bataille de Stalingrad 75019 Paris",
    "pins": ["bieres","lebonbon","terrasse"],
    "picture":"https://fbcdn-profile-a.akamaihd.net/hprofile-ak-prn2/v/t1.0-1/c19.0.50.50/p50x50/10614160_834775316533575_2718864974548823844_n.jpg?oh=2d609f015ac959754ec8a79b5059e596&oe=566CF0E4&__gda__=1449170699_3762a7f17e9e11463f4589ef3263bbb7"
  },
   {
    "name":"3 Pièces Cuisine",
    "id":"141390109238573",
    "lat":"48.8829308",
    "lng":"2.3180499",
    "address":"101 Rue des Dames 75017 Paris",
    "pins": ["terrasse","timeout","bieres"],
    "picture":"https://scontent.xx.fbcdn.net/hprofile-xta1/t5.0-1/276823_141390109238573_1668404833_q.jpg"
  },
   {
    "name":"36 Corneil",
    "id":"180571935289310",
    "lat":"48.8789101",
    "lng":"2.34553",
    "address":"36 rue de rochechouart 75009 Paris",
    "pins": ["lebonbon","terrasse","bieres"],
    "picture":"https://fbcdn-profile-a.akamaihd.net/hprofile-ak-xaf1/v/t1.0-1/p50x50/246860_223467577666412_5176532_n.jpg?oh=be87bfb73f1402dbc5036e94d4d8bf13&oe=5668E1E3&__gda__=1449746297_07f5e3279198a69b715423ae3e625679"
  },
   {
    "name":"3W Kafé",
    "id":"1555149808054899",
    "lat":"48.8565477491",
    "lng":"2.35845439437",
    "address":"8, rue des Ecouffes 75004 Paris",
    "pins": ["terrasse","bieres","lebonbon"],
    "picture":"https://scontent.xx.fbcdn.net/hprofile-xfa1/v/t1.0-1/c2.0.50.50/p50x50/9782_1555149908054889_3401716021232045665_n.jpg?oh=0cd56848a3f914219c11c63ea1cbcfea&oe=566820F0"
  },
   {
    "name":"Ã‚ne Chic",
    "id":"786526098046239",
    "lat":"48.8737907",
    "lng":"2.3503201",
    "address":"37 bis, Rue des Petites Ecuries 75010 Paris",
    "pins": ["bieres","lebonbon","terrasse"],
    "picture":"https://scontent.xx.fbcdn.net/hprofile-xat1/v/t1.0-1/p50x50/10308084_787012984664217_6654614123167298406_n.png?oh=9b3352a580095df5f7619ff58eec05b5&oe=567FC3A3"
  },
   {
    "name":"Ã” Château",
    "id":"117449808341828",
    "lat":"48.8397102",
    "lng":"2.3366201",
    "address":"proche Gare Montparnasse 75014 Paris",
    "pins": ["lebonbon","timeout","bieres"],
    "picture":"https://fbcdn-profile-a.akamaihd.net/hprofile-ak-xpf1/v/t1.0-1/c154.33.412.412/s50x50/259885_117450228341786_243839_n.jpg?oh=949e178675528df933b6bac0af351d16&oe=566201E7&__gda__=1449362568_d956749369f84fd32b1457af9b2b7ab3"
  },
   {
    "name":"Absurde Imposture",
    "id":"224746084222522",
    "lat":"48.8909912",
    "lng":"2.3460901",
    "address":"5 rue Eugène Süe 75018 Paris",
    "pins": ["timeout","lebonbon","bieres"],
    "picture":"https://scontent.xx.fbcdn.net/hprofile-xfp1/v/t1.0-1/c10.0.50.50/p50x50/10628482_857781934252264_5583797035390019003_n.jpg?oh=d3371566c286730a8ecfd3768896b097&oe=566C9D91"
  },
   {
    "name":"Académie de La Bière",
    "id":"131557556891713",
    "lat":"48.83918",
    "lng":"2.3392501",
    "address":"88 bis boulevard de Port-Royal 75005 Paris",
    "pins": ["lebonbon","timeout","bieres"],
    "picture":"https://fbcdn-profile-a.akamaihd.net/hprofile-ak-xpa1/v/t1.0-1/p50x50/1493243_830964773601069_7137891203939474089_n.jpg?oh=6c0bae5c4ea0f067204f594313f70bcd&oe=56ABD320&__gda__=1449441523_b3b1349ac8c80072b7ffaa66f206ed3a"
  },
   {
    "name":"Accordologue",
    "id":"1597113673876591",
    "lat":"48.8898582",
    "lng":"2.34218",
    "address":"127 rue Caulaincourt  75018 Paris",
    "pins": ["terrasse","lebonbon","bieres"],
    "picture":"https://scontent.xx.fbcdn.net/hprofile-xtp1/v/t1.0-1/c0.0.50.50/p50x50/11137093_1601518453436113_573260230935396751_n.jpg?oh=b1ab15de3e2d859b22bbe86af277b50c&oe=565FA463"
  },
   {
    "name":"Acte 3",
    "id":"164626546905131",
    "lat":"48.8561211",
    "lng":"2.3246801",
    "address":"7 rue Paul Louis Courier 75007 Paris",
    "pins": ["rock","timeout","bieres"],
    "picture":"https://fbcdn-profile-a.akamaihd.net/hprofile-ak-xta1/v/t1.0-1/c10.0.50.50/p50x50/11949157_1021099394591171_1741035003124368368_n.jpg?oh=477b2a72b6edb8fb0cf134371b69903e&oe=5664C28F&__gda__=1450456507_b9fc20b7a86fc00a9fa1aa5ed7f287fa"
  },
   {
    "name":"Adada",
    "id":"191075480964078",
    "lat":"48.8405609",
    "lng":"2.32232",
    "address":"15 RUE du Maine 75014 Paris",
    "pins": ["lebonbon","bieres","terrasse"],
    "picture":"https://scontent.xx.fbcdn.net/hprofile-xtp1/v/t1.0-1/p50x50/21291_848562105215409_7352170887002027306_n.jpg?oh=746d0d4062ec060a9e51f12e82a024e1&oe=5677CBA8"
  },
   {
    "name":"Alcazar Club",
    "id":"360538417358086",
    "lat":"48.8545309966",
    "lng":"2.33769921989",
    "address":"62 rue mazarine 75006 Paris",
    "pins": ["bieres","rock","terrasse"],
    "picture":"https://scontent.xx.fbcdn.net/hprofile-xaf1/v/t1.0-1/p50x50/1623687_593371820741410_97334266_n.jpg?oh=c5e0c7397098a1d2c849f2398c53b320&oe=5676E9E2"
  },
   {
    "name":"Alibi",
    "id":"165226016825700",
    "lat":"48.8920593",
    "lng":"2.3428299",
    "address":"11 rue Lapeyrere 75018 Paris",
    "pins": ["bieres","lebonbon","terrasse"],
    "picture":"https://fbcdn-profile-a.akamaihd.net/static-ak/rsrc.php/v2/y5/r/j258ei8TIHu.png"
  },
   {
    "name":"Ambre",
    "id":"136600423052332",
    "lat":"48.8524818",
    "lng":"2.3405399",
    "address":"12 Rue de l'eperon 75006 Paris",
    "pins": ["terrasse","timeout","bieres"],
    "picture":"https://fbcdn-profile-a.akamaihd.net/static-ak/rsrc.php/v2/y5/r/j258ei8TIHu.png"
  },
   {
    "name":"Annexe",
    "id":"386601374745369",
    "lat":"48.8550300911",
    "lng":"2.34560280523",
    "address":"11, boulevard des filles du calvaire 75003 Paris",
    "pins": ["timeout","bieres"],
    "picture":"https://fbcdn-profile-a.akamaihd.net/hprofile-ak-ash2/v/t1.0-1/c170.50.621.621/s50x50/578455_386602134745293_261566498_n.jpg?oh=d6f0233afe6dda0e663d375b752712db&oe=566A7990&__gda__=1450621122_6500913d91de36202e66559b62714bdb"
  },
   {
    "name":"Art Brut Bistrot",
    "id":"138663742847613",
    "lat":"48.8621597",
    "lng":"2.35112",
    "address":"78, rue Quincampoix 75003 Paris",
    "pins": ["lebonbon","bieres"],
    "picture":"https://fbcdn-profile-a.akamaihd.net/static-ak/rsrc.php/v2/yW/r/U2hFrus9i5v.png"
  },
   {
    "name":"Au Chat Noir",
    "id":"164861890215696",
    "lat":"48.867284375",
    "lng":"2.37598753314",
    "address":"76, rue Jean-Pierre Timbaud 75011 Paris",
    "pins": ["lebonbon","bieres"],
    "picture":"https://fbcdn-profile-a.akamaihd.net/hprofile-ak-xap1/v/t1.0-1/p50x50/1545163_392280097572820_1177079269_n.jpg?oh=f09fec0bc8cb3170c17af78fd6a95596&oe=5678CD61&__gda__=1450883295_a4506075903c3ca2fe1d35f40c083655"
  },
   {
    "name":"Au Magique",
    "id":"152505951446936",
    "lat":"48.833149",
    "lng":"2.31581",
    "address":"42 Rue Gergovie 75014 Paris",
    "pins": ["rock","bieres"],
    "picture":"https://fbcdn-profile-a.akamaihd.net/static-ak/rsrc.php/v2/y5/r/j258ei8TIHu.png"
  },
   {
    "name":"Au petit comptoir",
    "id":"172444066150799",
    "lat":"48.8867562197",
    "lng":"2.34076836671",
    "address":"8 rue norvins, 75018 75018 Paris",
    "pins": ["lebonbon","bieres"],
    "picture":"https://fbcdn-profile-a.akamaihd.net/static-ak/rsrc.php/v2/y5/r/j258ei8TIHu.png"
  },
   {
    "name":"Au Train De Vie",
    "id":"156196851066236",
    "lat":"48.8783188",
    "lng":"2.35817",
    "address":"1 Rue Deux Gares 75010 Paris",
    "pins": ["bieres","lebonbon"],
    "picture":"https://scontent.xx.fbcdn.net/hprofile-xfa1/v/t1.0-1/p50x50/1797570_593504890730580_398787156_n.jpg?oh=26c57609412720b044f00b6ff7c4af9d&oe=5679E504"
  },
   {
    "name":"Au Trinquet",
    "id":"318713414939412",
    "lat":"48.8373272537",
    "lng":"2.26449865506",
    "address":"8 Quai Saint-Exupéry 75016 Paris",
    "pins": ["terrasse","bieres"],
    "picture":"https://fbcdn-profile-a.akamaihd.net/hprofile-ak-xtp1/v/t1.0-1/p50x50/11329742_676275205849896_1417293099142168406_n.jpg?oh=ad0e309f61c925bd1397f46aa5dcefce&oe=565DAB2C&__gda__=1449176555_8a933ecfe29a044186faf7b0daf122d2"
  },
   {
    "name":"Au Vin sur la Planche",
    "id":"1409856702628792",
    "lat":"48.8799896",
    "lng":"2.3448801",
    "address":"38 rue Condorcet 75009 Paris",
    "pins": ["bieres","timeout"],
    "picture":"https://fbcdn-profile-a.akamaihd.net/hprofile-ak-xtp1/v/t1.0-1/c12.0.50.50/p50x50/10329144_1412567505691045_7395537853513274775_n.jpg?oh=2f46c78ba3e1f61b3981e7307c0e9906&oe=56AABF2F&__gda__=1451163589_392d74982af2321f8481a065478bd8c8"
  },
   {
    "name":"auberge Flora",
    "id":"290138721023739",
    "lat":"48.8582191",
    "lng":"2.37187",
    "address":"44 boulevard Richard LENOIR 75011 Paris",
    "pins": ["bieres","timeout"],
    "picture":"https://fbcdn-profile-a.akamaihd.net/hprofile-ak-xfa1/v/t1.0-1/c117.58.725.725/s50x50/394510_290140607690217_1601405812_n.jpg?oh=9aa07cbfbfef8c3577d61c6e75ce7a70&oe=5670D96A&__gda__=1449071531_fd9fc682298b3c4cf4c2d9131532f720"
  },
   {
    "name":"Aumônière de Bacchus",
    "id":"668763863176029",
    "lat":"48.8503799",
    "lng":"2.38709",
    "address":"40 rue de Montreuil 75011 Paris",
    "pins": ["bieres","lebonbon"],
    "picture":"https://fbcdn-profile-a.akamaihd.net/hprofile-ak-xfp1/v/t1.0-1/p50x50/1901315_668765183175897_1043584983_n.jpg?oh=4f685c146a242390108c700f836e6bda&oe=566A1FC1&__gda__=1449907473_c3b5628f781a6f4463793115f402849c"
  },
   {
    "name":"Autour d'un Verre",
    "id":"110892312304479",
    "lat":"48.8738899",
    "lng":"2.3452001",
    "address":"21 Rue de Trévise 75009 Paris",
    "pins": ["bieres","rock"],
    "picture":"https://fbcdn-profile-a.akamaihd.net/hprofile-ak-xap1/v/t1.0-1/c8.0.50.50/p50x50/1175057_577251648980447_2007422042_n.jpg?oh=62e950abcb2f35c86040ac205798ff65&oe=566B0AFA&__gda__=1450616891_7e5739319c140fc5132d67d101d19c41"
  },
   {
    "name":"Autour de Midi... et Minuit",
    "id":"158920794171529",
    "lat":"48.8846743991",
    "lng":"2.33352751363",
    "address":"11, Rue Lepic (Montmartre) 75018 Paris",
    "pins": ["rock","bieres"],
    "picture":"https://fbcdn-profile-a.akamaihd.net/hprofile-ak-xap1/v/t1.0-1/p50x50/1545210_10153097143196515_1099895143_n.jpg?oh=05ca5cdf02c6feef515e1697051248d8&oe=566EFA7D&__gda__=1448969951_021b7d5b5e476eb892076793e3435101"
  },
   {
    "name":"Aux Deux Cygnes",
    "id":"712820378735630",
    "lat":"48.8555107",
    "lng":"2.3754001",
    "address":"36, rue Keller 75011 Paris",
    "pins": ["bieres","terrasse"],
    "picture":"https://fbcdn-profile-a.akamaihd.net/hprofile-ak-xat1/v/t1.0-1/p50x50/10301186_797759523575048_8373646595437522680_n.jpg?oh=a113893de91f4e5ec53eee114f5d882e&oe=5669927E&__gda__=1449275962_537321c686e03636fadacc4875f5b4cd"
  },
   {
    "name":"Aux Noctambules",
    "id":"978443548857242",
    "lat":"48.88247359",
    "lng":"2.33727640333",
    "address":"Place Pigalle 75018 Paris",
    "pins": ["bieres","lebonbon"],
    "picture":"https://scontent.xx.fbcdn.net/hprofile-xfp1/v/t1.0-1/p50x50/11221842_1016403098394620_7721294373687265786_n.jpg?oh=422c89102005de9d32bde81612c8c711&oe=566293F3"
  },
   {
    "name":"avant Comptoir",
    "id":"271712412848250",
    "lat":"48.8518906",
    "lng":"2.33887",
    "address":"9 Carrefour de l'Odeon 75006 Paris",
    "pins": ["bieres","lebonbon"],
    "picture":"https://scontent.xx.fbcdn.net/hprofile-xap1/v/t1.0-1/p50x50/11081357_696537383815078_2220599606889594210_n.jpg?oh=aeb23d3be8c492f88d2b055b9f8eb72d&oe=567D70C4"
  },
   {
    "name":"Avek",
    "id":"1539868509598101",
    "lat":"48.8659515",
    "lng":"2.34886",
    "address":"21 rue Saint Sauveur 75002 Paris",
    "pins": ["bieres","timeout"],
    "picture":"https://fbcdn-profile-a.akamaihd.net/hprofile-ak-xft1/v/t1.0-1/c2.0.50.50/p50x50/10487235_1551906528394299_3753742015599868261_n.png?oh=0a948b143a93d9562af172d77ea92e5b&oe=5660900E&__gda__=1449034666_66dd4fe6117f02dfa086fa4ede33d7dc"
  },
   {
    "name":"Babel Café",
    "id":"1410450555887388",
    "lat":"48.8650856",
    "lng":"2.3845649",
    "address":"109, boulevard de Ménilmontant 75011 Paris",
    "pins": ["lebonbon","bieres"],
    "picture":"https://fbcdn-profile-a.akamaihd.net/hprofile-ak-xft1/v/t1.0-1/c8.0.50.50/p50x50/15883_1555549541377488_5740349690467022599_n.jpg?oh=b50ebd681b521c694bc6acf7a83cc475&oe=567D5EB4&__gda__=1449439525_50c5a9919810592510159549a9648d0a"
  },
   {
    "name":"Baiser Salé",
    "id":"157855214241030",
    "lat":"48.8598518",
    "lng":"2.34779",
    "address":"58 rue des lombards 75001 Paris",
    "pins": ["bieres","lebonbon"],
    "picture":"https://fbcdn-profile-a.akamaihd.net/hprofile-ak-xfp1/v/t1.0-1/c13.0.50.50/p50x50/66318_537000026326545_2022960162_n.jpg?oh=fd7c48559ea2a54952b7595f3c980280&oe=5672C0A0&__gda__=1449463238_c9f7c17530ae9247b8140319a9030943"
  },
   {
    "name":"Ballon FC",
    "id":"633773523382246",
    "lat":"48.8710323115",
    "lng":"2.35223394342",
    "address":"17 rue Mazagran 75010 Paris",
    "pins": ["timeout","bieres"],
    "picture":"https://fbcdn-profile-a.akamaihd.net/hprofile-ak-xfa1/v/t1.0-1/c0.0.50.50/p50x50/10929165_753938631365734_899243682746433963_n.jpg?oh=472459c4290711451d0377ff895a1e10&oe=567627DF&__gda__=1450479223_896a52b0920936f2bced86369d75e9ef"
  },
   {
    "name":"Ballroom",
    "id":"201554210005781",
    "lat":"48.864076976",
    "lng":"2.34335235358",
    "address":"58 Rue Jean-Jacques Rousseau 75002 Paris",
    "pins": ["lebonbon","bieres"],
    "picture":"https://fbcdn-profile-a.akamaihd.net/static-ak/rsrc.php/v2/y5/r/j258ei8TIHu.png"
  },
   {
    "name":"Bar Belge",
    "id":"185995714837075",
    "lat":"48.8923988",
    "lng":"2.32705",
    "address":"75 Avenue St Ouen 75017 Paris",
    "pins": ["terrasse","bieres"],
    "picture":"https://scontent.xx.fbcdn.net/hprofile-xfa1/v/t1.0-1/c170.50.621.621/s50x50/429999_185996194837027_1500072695_n.jpg?oh=8e1990dc8fcaef03d5eac5663deb9b17&oe=56AAB0C9"
  },
   {
    "name":"Bar Demory Paris",
    "id":"488912044475332",
    "lat":"48.8616714",
    "lng":"2.3508699",
    "address":"62 rue quincampoix 75004 Paris",
    "pins": ["bieres","lebonbon"],
    "picture":"https://scontent.xx.fbcdn.net/hprofile-frc3/v/t1.0-1/p50x50/1391838_649451631754705_1664574265_n.jpg?oh=125026f7b469eb829c654e66ab815239&oe=56692C14"
  },
   {
    "name":"Bar des Varietés",
    "id":"364834870280800",
    "lat":"48.871109",
    "lng":"2.3417399",
    "address":"12, passage des Panoramas 75002 Paris",
    "pins": ["rock","bieres"],
    "picture":"https://fbcdn-profile-a.akamaihd.net/hprofile-ak-xpf1/v/t1.0-1/c12.12.155.155/s50x50/3390_364839416947012_682453903_n.jpg?oh=a69435ba0fc30fd0fb035fce9fb61191&oe=5663CC28&__gda__=1450866247_4ea0e90225d40e1698fed1de3c4f13d4"
  },
   {
    "name":"Barav'",
    "id":"158634264155651",
    "lat":"48.8650731439",
    "lng":"2.36297446227",
    "address":"angle rue dupuis, rue de la corderie 75003 Paris",
    "pins": ["bieres","timeout"],
    "picture":"https://scontent.xx.fbcdn.net/hprofile-xfa1/v/t1.0-1/c205.44.549.549/s50x50/309823_293693283983081_2030931222_n.jpg?oh=1622638bd0c594f88f3d0abd95450da5&oe=5665FFB5"
  },
   {
    "name":"Barbershop",
    "id":"77378465813",
    "lat":"48.8645401",
    "lng":"2.3775699",
    "address":"68, avenue de la République 75011 Paris",
    "pins": ["bieres","terrasse"],
    "picture":"https://scontent.xx.fbcdn.net/hprofile-xpf1/v/t1.0-1/p50x50/11855730_10153009827825814_7761817403646238243_n.jpg?oh=0c60c465fd80151bfde50a41cc850328&oe=5666518B"
  },
   {
    "name":"Baromètre",
    "id":"723523984347002",
    "lat":"48.8638306",
    "lng":"2.3696699",
    "address":"38 boulevard Voltaire 75011 Paris",
    "pins": ["bieres","terrasse"],
    "picture":"https://fbcdn-profile-a.akamaihd.net/static-ak/rsrc.php/v2/yW/r/U2hFrus9i5v.png"
  },
   {
    "name":"Batofar",
    "id":"125893390797852",
    "lat":"48.8334504702",
    "lng":"2.37898008812",
    "address":"Face au 11 quai François Mauriac 75013 Paris",
    "pins": ["bieres","lebonbon"],
    "picture":"https://scontent.xx.fbcdn.net/hprofile-xpt1/v/t1.0-1/c3.0.50.50/p50x50/11227525_818326541554530_4327335471241274246_n.png?oh=077d45667385b65effbcbb42545049f1&oe=566754E4"
  },
   {
    "name":"Beaurepaire",
    "id":"343982082335714",
    "lat":"48.8693619",
    "lng":"2.3635199",
    "address":"6 rue Beaurepaire 75010 Paris",
    "pins": ["bieres","terrasse"],
    "picture":"https://fbcdn-profile-a.akamaihd.net/hprofile-ak-xap1/v/t1.0-1/p50x50/10847806_801753499891901_2304332845564173298_n.jpg?oh=0d407c08ddaf7853633064bb7eac5db3&oe=56660EF6&__gda__=1449503680_8c14eb565b114b4e04dd6b52b7df5fba"
  },
   {
    "name":"Belette qui tète",
    "id":"85791305680",
    "lat":"48.8359795",
    "lng":"2.3499701",
    "address":"17 boulevard Arago 75013 Paris",
    "pins": ["timeout","bieres"],
    "picture":"https://fbcdn-profile-a.akamaihd.net/hprofile-ak-xap1/v/t1.0-1/p50x50/10398551_85792110680_5537271_n.jpg?oh=a942e411074777579684430883ee8b04&oe=5674CCD2&__gda__=1450829286_6f3c2a67b8e56d97fb0e67c4bf6daf58"
  },
   {
    "name":"Belle Hortense",
    "id":"132302596816723",
    "lat":"48.8575096",
    "lng":"2.35747",
    "address":"31 rue Vieille du Temple 75004 Paris",
    "pins": ["bieres","terrasse"],
    "picture":"https://fbcdn-profile-a.akamaihd.net/hprofile-ak-xpa1/v/t1.0-1/c8.0.50.50/p50x50/150953_10151903996049846_2009580370_n.jpg?oh=e37e5b815fb767570b9283f3bef7820b&oe=567AC727&__gda__=1449115034_d00f880e8afeb1ea83a9256492c7e5fb"
  },
   {
    "name":"Belushi's",
    "id":"345572882148168",
    "lat":"48.8884958906",
    "lng":"2.37914597349",
    "address":"159 Rue de crimée 75019 Paris",
    "pins": ["lebonbon","bieres"],
    "picture":"https://fbcdn-profile-a.akamaihd.net/hprofile-ak-xfa1/v/t1.0-1/p50x50/11203149_891152830923501_6781570474428320577_n.jpg?oh=86fc3451e1b7f894dccd36f6593cab5a&oe=5677D4CA&__gda__=1449047962_bf0f64db1ca064d81005d6b83ec6c4fe"
  },
   {
    "name":"Bespoke",
    "id":"395944147213725",
    "lat":"48.8628387",
    "lng":"2.36763",
    "address":"3 rue Oberkampf 75011 Paris",
    "pins": ["timeout","bieres"],
    "picture":"https://fbcdn-profile-a.akamaihd.net/hprofile-ak-xap1/v/t1.0-1/c13.0.50.50/p50x50/11692797_614758698665601_5462847730745719475_n.jpg?oh=642f1e43d09d65d160e861d12a7be298&oe=567F03F6&__gda__=1450852039_a31ac9f2252cf74aedb872a8347282c6"
  },
   {
    "name":"Bianca Restaurant",
    "id":"614091095345532",
    "lat":"48.8701286",
    "lng":"2.3328199",
    "address":"2 rue du Quatre Septembre 75002 Paris",
    "pins": ["rock","bieres"],
    "picture":"https://fbcdn-profile-a.akamaihd.net/hprofile-ak-xfp1/v/t1.0-1/p50x50/10417019_715764708511503_4627059329755269959_n.jpg?oh=371cb1cd279fe3ef55e45f3a6a36e680&oe=565F47B9&__gda__=1449481439_df0a72c7e10394ef3c5fd4957890bb9a"
  },
   {
    "name":"Bien Décidé",
    "id":"150804548271038",
    "lat":"48.8458214",
    "lng":"2.3198099",
    "address":"117 rue du Cherche-Midi 75006 Paris",
    "pins": ["lebonbon","bieres"],
    "picture":"https://scontent.xx.fbcdn.net/hprofile-frc3/v/t1.0-1/c0.14.50.50/p50x50/46453_150804678271025_4685278_n.jpg?oh=9857d5f26578afd7d7d3bc80adcbc445&oe=567DE18C"
  },
   {
    "name":"Bistrot 82",
    "id":"131034066949128",
    "lat":"48.8831482",
    "lng":"2.3397901",
    "address":"82, rue des Martyrs 75018 Paris",
    "pins": ["timeout","bieres"],
    "picture":"https://fbcdn-profile-a.akamaihd.net/hprofile-ak-xaf1/v/t1.0-1/c171.49.618.618/s50x50/303748_259951477390719_115468346_n.jpg?oh=1fca200fb8bd4650aed4e8bbb35b3e79&oe=565FE7DD&__gda__=1450209862_e63e7b09b916046e126a811fd2729474"
  },
   {
    "name":"Bistrot des Dames",
    "id":"156349361056313",
    "lat":"48.8850403",
    "lng":"2.3250501",
    "address":"18 Rue des Dames 75017 Paris",
    "pins": ["bieres","timeout"],
    "picture":"https://fbcdn-profile-a.akamaihd.net/hprofile-ak-xaf1/v/t1.0-1/c1.0.50.50/p50x50/10599404_876988152325760_108830456215086870_n.jpg?oh=c7d95dd3e0b4e0d98e514cb8ff5f1193&oe=567508BA&__gda__=1454075791_ce0d5d708d3b81d1db707e4ac947d029"
  },
   {
    "name":"Bistrot des Fistons",
    "id":"323457427714308",
    "lat":"48.8564179015",
    "lng":"2.30552985668",
    "address":"15 rue du champs de mars 75007 Paris",
    "pins": ["rock","bieres"],
    "picture":"https://fbcdn-profile-a.akamaihd.net/hprofile-ak-xpa1/v/t1.0-1/p50x50/10300496_739920709401309_8482384318504431273_n.jpg?oh=e1ad19b6c88846c8f217fe88603e66f5&oe=566B4448&__gda__=1449550420_4d00490f366984bf955221a86a1182b8"
  },
   {
    "name":"Bistrot le H",
    "id":"1442342706020850",
    "lat":"48.8905866669",
    "lng":"2.32105927626",
    "address":"60 rue des Moines 75017 Paris",
    "pins": ["bieres","lebonbon"],
    "picture":"https://fbcdn-profile-a.akamaihd.net/hprofile-ak-xfp1/v/t1.0-1/p50x50/11053263_1592278674360585_6788562837742393909_n.jpg?oh=b7cb5c149f77ec7839b7d376d25176a2&oe=5678110C&__gda__=1449719190_6b473ab643ea72e4afb77241bf5df71a"
  },
   {
    "name":"Bistrot Pyramide",
    "id":"224304140976738",
    "lat":"48.8658427831",
    "lng":"2.33365966326",
    "address":"20 rue des Pyramides 75001 Paris",
    "pins": ["timeout","bieres"],
    "picture":"https://fbcdn-profile-a.akamaihd.net/hprofile-ak-xfa1/v/t1.0-1/c42.17.209.209/s50x50/424587_261080700632415_356501480_n.jpg?oh=1ff633041240e3d9f141265b4817206e&oe=56A96D5B&__gda__=1450645527_beb3781b68b27c1048eb4bb6c846eb62"
  },
   {
    "name":"Bla Bla",
    "id":"289234537834894",
    "lat":"48.8810883",
    "lng":"2.33162",
    "address":"66 rue Blanche 75009 Paris",
    "pins": ["bieres","terrasse"],
    "picture":"https://fbcdn-profile-a.akamaihd.net/hprofile-ak-xft1/v/t1.0-1/p50x50/11156383_828907710534238_3335061747705608504_n.jpg?oh=d72c7fa4f290a802e0b5ee87419397f3&oe=56677E8D&__gda__=1449549721_702bbe27cbeee6d69ffc8d87e049b48a"
  },
   {
    "name":"Boétie",
    "id":"335326083324101",
    "lat":"48.8735199",
    "lng":"2.313",
    "address":"52 rue la Boétie 75008 Paris",
    "pins": ["lebonbon","bieres"],
    "picture":"https://fbcdn-profile-a.akamaihd.net/hprofile-ak-xap1/v/t1.0-1/c5.0.50.50/p50x50/11072913_335326389990737_7119531887184785624_n.png?oh=a518cf07b694c1ed90fdab486d2c0fd7&oe=56A93503&__gda__=1450803519_ad7d6c1374c18bf37ddc051d18b4d2a3"
  },
   {
    "name":"Bones",
    "id":"444612198949559",
    "lat":"48.8566430985",
    "lng":"2.38023684705",
    "address":"Rue Godefroy Cavaignac 75011 Paris",
    "pins": ["bieres","lebonbon"],
    "picture":"https://fbcdn-profile-a.akamaihd.net/static-ak/rsrc.php/v2/yW/r/U2hFrus9i5v.png"
  },
   {
    "name":"Borgo delle Tovaglie",
    "id":"364312613723239",
    "lat":"48.8646846614",
    "lng":"2.36924104727",
    "address":"4 rue du Grand Prieure 75011 Paris",
    "pins": ["bieres","timeout"],
    "picture":"https://fbcdn-profile-a.akamaihd.net/static-ak/rsrc.php/v2/y5/r/j258ei8TIHu.png"
  },
   {
    "name":"Bottle Shop",
    "id":"219349558188826",
    "lat":"48.8511696",
    "lng":"2.3785501",
    "address":"5, rue Trousseau 75011 Paris",
    "pins": ["terrasse","bieres"],
    "picture":"https://fbcdn-profile-a.akamaihd.net/hprofile-ak-xfp1/v/t1.0-1/c12.12.155.155/s50x50/1743501_228632173927231_1456018581_n.jpg?oh=39473c275abf787484b5e6e4ec498ffe&oe=5670A7C7&__gda__=1449379813_b4fed496af35274f8e077f153149e28a"
  },
   {
    "name":"Bouteille sur la Table",
    "id":"114906795269137",
    "lat":"48.8817215",
    "lng":"2.31779",
    "address":"2, PASSAGE GEFFROY DIDELOT 75017 Paris",
    "pins": ["rock","bieres"],
    "picture":"https://fbcdn-profile-a.akamaihd.net/hprofile-ak-xap1/v/t1.0-1/c0.11.50.50/p50x50/11667521_884041208355688_3306322597310189529_n.jpg?oh=42dd7b31d7f647a7337466f3dc3e1445&oe=5663DC71&__gda__=1449905472_757f285c5daa4437352dd72904bee344"
  },
   {
    "name":"Brasserie de La Goutte d’or",
    "id":"244985455571377",
    "lat":"48.8850076282",
    "lng":"2.35244570203",
    "address":"28 rue de la Goutte d'Or 75018 Paris",
    "pins": ["rock","bieres"],
    "picture":"https://fbcdn-profile-a.akamaihd.net/hprofile-ak-xap1/v/t1.0-1/c1.0.50.50/p50x50/10959377_753511101385474_4135808368249916015_n.png?oh=aba3e8c32eab366dba6525fba6665b7e&oe=56704D9B&__gda__=1449619111_7105b88a39eb2f96c4d6a52bee5f1310"
  },
   {
    "name":"Brébant",
    "id":"163286470406578",
    "lat":"48.8715782",
    "lng":"2.3435299",
    "address":"32 Boulevard Poissonnière 75009 Paris",
    "pins": ["timeout","bieres"],
    "picture":"https://scontent.xx.fbcdn.net/hprofile-xfa1/v/t1.0-1/p50x50/270287_163286717073220_6072539_n.jpg?oh=5260284013db46565d18e0c04e19d8ed&oe=567C43FB"
  },
   {
    "name":"Brewberry",
    "id":"112193145482420",
    "lat":"48.8430697354",
    "lng":"2.34861782113",
    "address":"18 rue du pot de fer 75005 Paris",
    "pins": ["bieres","terrasse"],
    "picture":"https://scontent.xx.fbcdn.net/hprofile-xta1/v/t1.0-1/p50x50/10406908_726445827390479_2873937238541968010_n.jpg?oh=2770fadd6ee579e302074fce305b03f0&oe=5667D575"
  },
   {
    "name":"Bronco",
    "id":"327269987417178",
    "lat":"48.8738098",
    "lng":"2.3501699",
    "address":"39, rue des Petites Ecuries 75010 Paris",
    "pins": ["rock","bieres"],
    "picture":"https://fbcdn-profile-a.akamaihd.net/hprofile-ak-xfp1/v/t1.0-1/p50x50/11903765_695041833973323_5155339511513958643_n.jpg?oh=11dadc32f529ad53312e8b424c3e098c&oe=56A9C075&__gda__=1453920019_469b80be719bda2e3d86db30dfd9183e"
  },
   {
    "name":"Brûlé",
    "id":"740953695942383",
    "lat":"48.8719711",
    "lng":"2.3334701",
    "address":"2 rue Meyerbeer 75009 Paris",
    "pins": ["lebonbon","bieres"],
    "picture":"https://scontent.xx.fbcdn.net/hprofile-xpf1/v/t1.0-1/p50x50/16376_740986502605769_4930120712971749582_n.jpg?oh=23a35fb2fc685e4288eb4f21e1d22f0f&oe=5665BCAD"
  },
   {
    "name":"Café Babel",
    "id":"1410450555887388",
    "lat":"48.8650856",
    "lng":"2.3845649",
    "address":"109, boulevard de Ménilmontant 75011 Paris",
    "pins": ["lebonbon","bieres"],
    "picture":"https://fbcdn-profile-a.akamaihd.net/hprofile-ak-xft1/v/t1.0-1/c8.0.50.50/p50x50/15883_1555549541377488_5740349690467022599_n.jpg?oh=b50ebd681b521c694bc6acf7a83cc475&oe=567D5EB4&__gda__=1449439525_50c5a9919810592510159549a9648d0a"
  },
   {
    "name":"Café Bonnie",
    "id":"51667883422",
    "lat":"48.8743515",
    "lng":"2.3619599",
    "address":"9 rue des Récollets 75010 Paris",
    "pins": ["bieres","rock"],
    "picture":"https://fbcdn-profile-a.akamaihd.net/hprofile-ak-frc3/v/t1.0-1/c42.42.520.520/s50x50/557867_10151497185328423_1212914927_n.jpg?oh=c45ea430d29bc8823de88a751c4c3e02&oe=56711DA7&__gda__=1449584180_c3421119a08bbe5fb46d05c1a04c5bd8"
  },
   {
    "name":"Café Chéri(e)",
    "id":"1421964738108148",
    "lat":"48.8740997",
    "lng":"2.3752401",
    "address":"44 Boulevard de la Villette 75020 Paris",
    "pins": ["timeout","bieres"],
    "picture":"https://fbcdn-profile-a.akamaihd.net/hprofile-ak-xap1/v/t1.0-1/p50x50/19202_1421964804774808_7050143094071348655_n.jpg?oh=63e2adf2fd8761dd7f6ae97e5c4fa6ab&oe=5669AA9F&__gda__=1449242632_41df84a3e85e68f93438e9b3e45b6926"
  },
   {
    "name":"Café Cox",
    "id":"133301739503",
    "lat":"48.8582611",
    "lng":"2.3548801",
    "address":"15 rue des archives 75004 Paris",
    "pins": ["bieres","lebonbon"],
    "picture":"https://fbcdn-profile-a.akamaihd.net/hprofile-ak-xpt1/v/t1.0-1/p50x50/11206043_10153403826359504_818564366864818440_n.jpg?oh=7680ad7851d3fa955157dc3953baa5b8&oe=56A894A4&__gda__=1451288426_ab4deaae7dbfb630e29859b691495d20"
  },
   {
    "name":"Café de la Poste",
    "id":"226198384221531",
    "lat":"48.8639183",
    "lng":"2.36481",
    "address":"124 rue de Turenne 75003 Paris",
    "pins": ["timeout","bieres"],
    "picture":"https://scontent.xx.fbcdn.net/hprofile-xfa1/v/t1.0-1/c8.0.50.50/p50x50/10270498_287493408092028_5470974554095828065_n.jpg?oh=9921e04bfc12f4293991e622dfc42587&oe=5677AB7A"
  },
   {
    "name":"Café des Anges",
    "id":"152173031508851",
    "lat":"48.8554382",
    "lng":"2.3744199",
    "address":"66 Rue de la Roquette 75011 Paris",
    "pins": ["rock","bieres"],
    "picture":"https://fbcdn-profile-a.akamaihd.net/hprofile-ak-xaf1/v/t1.0-1/c0.0.50.50/p50x50/11079672_854736327919181_1423571805591686544_n.jpg?oh=89671f391a9720a769efd6bc18219410&oe=567FFA8A&__gda__=1449961433_78a7f58e7799f5294ab6a5c6d9f672b6"
  },
   {
    "name":"Café Marly",
    "id":"160912130602455",
    "lat":"48.8614600891",
    "lng":"2.3355260815",
    "address":"93 rue de Rivoli 75001 Paris",
    "pins": ["bieres","lebonbon"],
    "picture":"https://fbcdn-profile-a.akamaihd.net/hprofile-ak-xfp1/v/t1.0-1/c59.33.416.416/s50x50/16627_562848687075462_1839244394_n.png?oh=3dc73a827623f0742e9fd1ed55f82ff0&oe=56ABE72A&__gda__=1450907708_0a631752b485d8f23777445e3b976f52"
  },
   {
    "name":"Café Zèd",
    "id":"140257522708919",
    "lat":"48.8401985",
    "lng":"2.35023",
    "address":"46 rue Daubenton 75005 Paris",
    "pins": ["bieres","rock"],
    "picture":"https://fbcdn-profile-a.akamaihd.net/hprofile-ak-xfa1/v/t1.0-1/c127.37.466.466/s50x50/200532_140284416039563_6210910_n.jpg?oh=0444003faad810a1114658baeef94d64&oe=566305E0&__gda__=1450421353_6ed5de6d7ab779eb7457e400855dbe4e"
  },
   {
    "name":"Caffé Créole",
    "id":"222508342217",
    "lat":"48.8579216",
    "lng":"2.3682499",
    "address":"62 Boulevard Beaumarchais 75011 Paris",
    "pins": ["terrasse","bieres"],
    "picture":"https://fbcdn-profile-a.akamaihd.net/hprofile-ak-xft1/v/t1.0-1/p50x50/11062035_10152732617817218_3563978482826908744_n.jpg?oh=e45579c235351153a51fe785fa646449&oe=5669D28C&__gda__=1449199813_603978242d465b5610cc7627a03258d9"
  },
   {
    "name":"Cantine Fabien",
    "id":"416711611818324",
    "lat":"48.8777199",
    "lng":"2.3697",
    "address":"5 place du Colonel Fabien 75010 Paris",
    "pins": ["bieres","lebonbon"],
    "picture":"https://fbcdn-profile-a.akamaihd.net/hprofile-ak-xfp1/v/t1.0-1/c0.0.50.50/p50x50/11351183_459185977570887_2915359189318210806_n.jpg?oh=bfb33f0a207ed675637bc5b87c054341&oe=5676169C&__gda__=1449399736_521a5bb5d571875cf922532be7703dea"
  },
   {
    "name":"Carbone 14",
    "id":"168260146671680",
    "lat":"48.8555908",
    "lng":"2.38727",
    "address":"6 rue Emile Lepeu 75011 Paris",
    "pins": ["timeout","bieres"],
    "picture":"https://fbcdn-profile-a.akamaihd.net/hprofile-ak-xpt1/v/t1.0-1/p50x50/11401010_489720394525652_3647689672177082804_n.jpg?oh=13b13c6e7ff9e173371ecb4e8faaa51b&oe=567C13CD&__gda__=1449349013_277afa0b06de0ac3c9642d47b181036d"
  },
   {
    "name":"Carmen",
    "id":"141653399215182",
    "lat":"48.882015818",
    "lng":"2.33410643197",
    "address":"34 Rue Duperré 75009 Paris",
    "pins": ["bieres","terrasse"],
    "picture":"https://fbcdn-profile-a.akamaihd.net/hprofile-ak-xap1/v/t1.0-1/p50x50/10931251_820764471304068_7420821753583052383_n.jpg?oh=d2185808d9e8adf918e3b969ebbad822&oe=567B0394&__gda__=1448983458_551e58251d23a054ba21b7ac9b8b1319"
  },
   {
    "name":"Carr's",
    "id":"547146951966135",
    "lat":"48.8653183",
    "lng":"2.32956",
    "address":"1 Rue du Mont Thabor 75001 Paris",
    "pins": ["timeout","bieres"],
    "picture":"https://fbcdn-profile-a.akamaihd.net/hprofile-ak-xfp1/v/t1.0-1/p50x50/1532136_10152841821299202_680180953990784768_n.jpg?oh=82e7fd1c58349f5485e637bfb9eecdce&oe=565E808D&__gda__=1450794475_1b4de855b35044b171c28d60e1c2faaf"
  },
   {
    "name":"Cave à Jojo",
    "id":"108565929213078",
    "lat":"48.8848915",
    "lng":"2.34092",
    "address":"26 Rue Trois Frères 75018 Paris",
    "pins": ["bieres","terrasse"],
    "picture":"https://fbcdn-profile-a.akamaihd.net/hprofile-ak-xpf1/v/t1.0-1/c44.44.552.552/s50x50/403515_334883159914686_1977116231_n.jpg?oh=e27e37663980ed216bca08b8a2bdb497&oe=56726954&__gda__=1450532396_c6a506366f4d957887ec8929dc1a7fc7"
  },
   {
    "name":"Cave Café",
    "id":"126767630711599",
    "lat":"48.8912229677",
    "lng":"2.33950033937",
    "address":"134 rue Marcadet 75018 Paris",
    "pins": ["bieres","lebonbon"],
    "picture":"https://scontent.xx.fbcdn.net/hprofile-xfa1/v/t1.0-1/c113.33.414.414/s50x50/574768_449350985119927_237327637_n.jpg?oh=c7b552ada1676afbf6831b15ffa41f21&oe=5675D891"
  },
   {
    "name":"cave d'en face",
    "id":"522506874530246",
    "lat":"48.8931999",
    "lng":"2.3377299",
    "address":"40 rue des Cloÿs 75018 Paris",
    "pins": ["lebonbon","bieres"],
    "picture":"https://scontent.xx.fbcdn.net/hprofile-xfa1/v/t1.0-1/p50x50/1016257_523887284392205_291203374_n.jpg?oh=cc0bb7188e2d0a21b25dc1a151e14859&oe=56AB2EC8"
  },
   {
    "name":"Cave de l'Entracte",
    "id":"116149675392721",
    "lat":"48.8707886",
    "lng":"2.35676",
    "address":"50 rue du Faubourg Saint-Martin  75010 Paris",
    "pins": ["terrasse","bieres"],
    "picture":"https://scontent.xx.fbcdn.net/hprofile-xtp1/v/t1.0-1/p50x50/11694848_117061501968205_779122665507136618_n.jpg?oh=58baef46b9fa1bdeae14406d3498230a&oe=567167EA"
  },
   {
    "name":"Cave des Abbesses",
    "id":"180039892090674",
    "lat":"48.885255647",
    "lng":"2.3363670379",
    "address":"43 rue des abbesses 75018 Paris",
    "pins": ["bieres","lebonbon"],
    "picture":"https://fbcdn-profile-a.akamaihd.net/hprofile-ak-xpf1/v/t1.0-1/c59.13.160.160/s50x50/317205_180040605423936_487493148_n.jpg?oh=db245b8edc0bf71c725b7b53ee22c4f1&oe=565DF37F&__gda__=1453888019_e2f8cbf81aa37dfc280fbe96a297858d"
  },
   {
    "name":"Caveau des Oubliettes",
    "id":"140932975936992",
    "lat":"48.8519897",
    "lng":"2.34672",
    "address":"52, rue Galande 75005 Paris",
    "pins": ["lebonbon","bieres"],
    "picture":"https://fbcdn-profile-a.akamaihd.net/hprofile-ak-xfa1/v/t1.0-1/p50x50/39674_140933965936893_4975037_n.jpg?oh=69a39ed183a5118ed9574e496287a252&oe=567BB8FE&__gda__=1449506487_fb942542ef6827a754b933a1c79df56d"
  },
   {
    "name":"Cavern Club",
    "id":"293655230673367",
    "lat":"48.8551788",
    "lng":"2.3398299",
    "address":"21 rue Dauphine 75006 Paris",
    "pins": ["lebonbon","bieres"],
    "picture":"https://scontent.xx.fbcdn.net/hprofile-xpa1/v/t1.0-1/c10.0.50.50/p50x50/10703777_799240286781523_4867689140025342421_n.png?oh=61ef00766bbe5769f289228c46b576a4&oe=567AF3C3"
  },
   {
    "name":"Caves Augé",
    "id":"113490372009300",
    "lat":"48.8748909195",
    "lng":"2.31870130739",
    "address":"116 boulevard Haussmann 75008 Paris",
    "pins": ["bieres","lebonbon"],
    "picture":"https://scontent.xx.fbcdn.net/hprofile-xft1/v/t1.0-1/c0.15.50.50/p50x50/1915808_113492825342388_7493252_n.jpg?oh=4b7541fc6d183e5e1c2f9f1945454195&oe=567700FB"
  },
   {
    "name":"Caves de Prague",
    "id":"697847863640454",
    "lat":"48.8496895",
    "lng":"2.37603",
    "address":"8 rue de prague 75012 Paris",
    "pins": ["lebonbon","bieres"],
    "picture":"https://scontent.xx.fbcdn.net/hprofile-xft1/v/t1.0-1/p50x50/10600493_698041590287748_6515229448143709330_n.jpg?oh=afd7c6e366e23da8a23ba8ab66024cad&oe=5661B006"
  },
   {
    "name":"Caves de Reuilly",
    "id":"406621429413089",
    "lat":"48.8392982",
    "lng":"2.3907399",
    "address":"11 boulevard de Reuilly 75012 Paris",
    "pins": ["bieres","rock"],
    "picture":"https://scontent.xx.fbcdn.net/hprofile-xap1/v/t1.0-1/c51.0.50.50/p50x50/1535762_585363008205596_1163780241_n.png?oh=7e828e7c0ecdd5fe678bb63d36fe9040&oe=566FFD29"
  },
   {
    "name":"Caves Legrand Filles & Fils",
    "id":"156242721064593",
    "lat":"48.8662701221",
    "lng":"2.33962193481",
    "address":"1, rue de la Banque 75002 Paris",
    "pins": ["rock","bieres"],
    "picture":"https://fbcdn-profile-a.akamaihd.net/hprofile-ak-xfa1/v/t1.0-1/c32.79.538.538/s50x50/404917_528030240552504_85668132_n.jpg?oh=6458864852f790ee80d2ac2a8fb2fa9a&oe=56A917FD&__gda__=1454095220_d7fc57f0b0e9427fa7f57a9ccac519b2"
  },
   {
    "name":"Chai d'Adrien",
    "id":"570791839657544",
    "lat":"48.8661746566",
    "lng":"2.36486977162",
    "address":"39 boulevard du temple 75003 Paris",
    "pins": ["terrasse","bieres"],
    "picture":"https://fbcdn-profile-a.akamaihd.net/hprofile-ak-xfa1/v/t1.0-1/p50x50/1464730_570792206324174_1373859444_n.jpg?oh=e3befc141a02ec18e4782edcba50bdce&oe=565FF67F&__gda__=1449791243_f2d6096629c896c7bd045e88ea2bc1f9"
  },
   {
    "name":"Champmeslé",
    "id":"519843164716620",
    "lat":"48.8671608",
    "lng":"2.3368101",
    "address":"4 rue Chabanais 75002 75002 Paris",
    "pins": ["terrasse","bieres"],
    "picture":"https://fbcdn-profile-a.akamaihd.net/static-ak/rsrc.php/v2/yW/r/U2hFrus9i5v.png"
  },
   {
    "name":"Chateau d'Eau",
    "id":"111973818863166",
    "lat":"48.8727777778",
    "lng":"2.35611111111",
    "address":"Boulevard de Strasbourg 75010 Paris",
    "pins": ["bieres","lebonbon"],
    "picture":"https://fbexternal-a.akamaihd.net/safe_image.php?d=AQDdfMHjqqefmI55&w=50&h=50&url=https%3A%2F%2Fupload.wikimedia.org%2Fwikipedia%2Fcommons%2Fthumb%2F5%2F53%2FMetro_a_Paris_01.JPG%2F720px-Metro_a_Paris_01.JPG&crop&fallback=hub_likes&prefix=q"
  },
   {
    "name":"Chéri Charlot",
    "id":"382097838632283",
    "lat":"48.8739891",
    "lng":"2.34431",
    "address":"33 rue Richer  75009 Paris",
    "pins": ["timeout","bieres"],
    "picture":"https://fbcdn-profile-a.akamaihd.net/hprofile-ak-xfp1/v/t1.0-1/p50x50/10353168_400940593414674_2668595334692183862_n.jpg?oh=5af68b427187250c2d9fc96bc5312eab&oe=5663A32A&__gda__=1449132620_91123f671735b8be3cacb2fd532422f7"
  },
   {
    "name":"Chez Adel",
    "id":"225293510886250",
    "lat":"48.873539",
    "lng":"2.3647699",
    "address":"10 rue de la grange aux belles 75010 Paris",
    "pins": ["bieres","lebonbon"],
    "picture":"https://fbcdn-profile-a.akamaihd.net/hprofile-ak-frc3/v/t1.0-1/c205.44.549.549/s50x50/578885_295236193891981_177896000_n.jpg?oh=37c037ce88bec79be77affc9cadf6050&oe=566F2539&__gda__=1448929939_3b80096a9f4e10f839ca5add44c1769f"
  },
   {
    "name":"Chez Alphonse",
    "id":"179565640301",
    "lat":"48.8513298",
    "lng":"2.3817",
    "address":"12 rue Saint Bernard 75011 Paris",
    "pins": ["terrasse","bieres"],
    "picture":"https://scontent.xx.fbcdn.net/hprofile-xft1/t5.0-1/50252_179565640301_7179_q.jpg"
  },
   {
    "name":"Chez Habibi",
    "id":"157105154322105",
    "lat":"48.8493195",
    "lng":"2.3749599",
    "address":"44, rue Traversière 75012 Paris",
    "pins": ["lebonbon","bieres"],
    "picture":"https://fbcdn-profile-a.akamaihd.net/static-ak/rsrc.php/v2/yW/r/U2hFrus9i5v.png"
  },
   {
    "name":"Chez Jeannette",
    "id":"134247690012869",
    "lat":"48.8715442534",
    "lng":"2.35360950668",
    "address":"47 rue du faubourg St.Denis  75010 Paris",
    "pins": ["terrasse","bieres"],
    "picture":"https://fbcdn-profile-a.akamaihd.net/hprofile-ak-ash2/v/t1.0-1/p50x50/1385923_439143812856587_2071255159_n.jpg?oh=f6a9e5fd0d6e2caaca90492b302f4a37&oe=565EF6B7&__gda__=1450895670_2631b7b0b77fa26411eda44c2504ac1f"
  },
   {
    "name":"Chez Moune",
    "id":"154546041245839",
    "lat":"48.8809814",
    "lng":"2.3359399",
    "address":"54 rue pigalle 75009 Paris",
    "pins": ["lebonbon","bieres"],
    "picture":"https://fbcdn-profile-a.akamaihd.net/static-ak/rsrc.php/v2/y5/r/j258ei8TIHu.png"
  },
   {
    "name":"Chez Papillon",
    "id":"665239363532623",
    "lat":"48.876225",
    "lng":"2.347233",
    "address":"49, rue de Ponthieu 75008 Paris",
    "pins": ["bieres","timeout"],
    "picture":"https://external.xx.fbcdn.net/safe_image.php?d=AQC9Vzus92VIzkRU&w=50&h=50&url=https%3A%2F%2Fupload.wikimedia.org%2Fwikipedia%2Fcommons%2Fthumb%2F3%2F31%2FRue_Bleue_%2528Paris%2529_et_rue_Papillon_%2528Paris%2529.jpg%2F720px-Rue_Bleue_%2528Paris%2529_et_rue_Papillon_%2528Paris%2529.jpg&crop&fallback=hub_likes&prefix=q"
  },
   {
    "name":"Chez Petit Jerry",
    "id":"845129855543976",
    "lat":"48.8726506836",
    "lng":"2.37562179565",
    "address":"4 rue civiale  75010 Paris",
    "pins": ["bieres","rock"],
    "picture":"https://fbcdn-profile-a.akamaihd.net/hprofile-ak-xaf1/v/t1.0-1/c8.0.50.50/p50x50/10302045_845138952209733_1116794913424889215_n.jpg?oh=e6d694e12d94009852d4a0f5d8adf192&oe=567D1FC8&__gda__=1449741467_4715cd2ae95fc99a5639e5cc35410d97"
  },
   {
    "name":"Chez Prune",
    "id":"770324039700053",
    "lat":"48.8715782",
    "lng":"2.3645",
    "address":"36 rue Beaurepaire 75010 Paris",
    "pins": ["bieres","terrasse"],
    "picture":"https://scontent.xx.fbcdn.net/hprofile-xpf1/v/t1.0-1/p50x50/10885185_10152445715566556_8522491732122729490_n.jpg?oh=37371db71955e0fc77282001ba27718c&oe=566CD890"
  },
   {
    "name":"Chez Rosette",
    "id":"267460010105700",
    "lat":"48.8722850028",
    "lng":"2.34916759107",
    "address":"40 rue d'Enghien 75010 Paris",
    "pins": ["bieres","timeout"],
    "picture":"https://fbcdn-profile-a.akamaihd.net/hprofile-ak-xfa1/v/t1.0-1/c6.0.50.50/p50x50/10344781_267461390105562_7115093639767902838_n.jpg?oh=23dde2b721cbc76d4eb0f1aebc1e8a15&oe=56AB02D1&__gda__=1449573873_67100c60bdacd8c7207f24530eb8e52f"
  },
   {
    "name":"Chez Toi ou chez moi",
    "id":"1409203092647503",
    "lat":"48.8614082",
    "lng":"2.3780401",
    "address":"3 rue du Général Renault 75011 Paris",
    "pins": ["timeout","bieres"],
    "picture":"https://fbcdn-profile-a.akamaihd.net/hprofile-ak-xtf1/v/t1.0-1/c10.0.50.50/p50x50/10339645_1480003978900747_1035908227812076821_n.jpg?oh=1f40dd3c240c517b78da1d3dc3a74d61&oe=56776453&__gda__=1451029119_dc0437b86b4f236857bb3dc94fad4a0a"
  },
   {
    "name":"Chhhut",
    "id":"330840153688857",
    "lat":"48.8665610223",
    "lng":"2.36337245665",
    "address":"22 rue beranger 75003 Paris",
    "pins": ["bieres","timeout"],
    "picture":"https://fbcdn-profile-a.akamaihd.net/hprofile-ak-xaf1/v/t1.0-1/c66.66.828.828/s50x50/1012307_390707794368759_639702627_n.jpg?oh=909cfb59935293a834c2730a7cdf0cea&oe=565D6E40&__gda__=1448935387_c7bebeb28439d6142b0485b53a5e36c9"
  },
   {
    "name":"Chop'In",
    "id":"194401103937285",
    "lat":"48.8769798",
    "lng":"2.3343301",
    "address":"52 Rue St Lazare 75009 Paris",
    "pins": ["bieres","terrasse"],
    "picture":"https://scontent.xx.fbcdn.net/hprofile-prn2/v/t1.0-1/c32.12.149.149/s50x50/225093_194402137270515_7506588_n.jpg?oh=2423189ceb83b74c9947ddaab78d42d5&oe=566A3BD8"
  },
   {
    "name":"Chouff'Bar",
    "id":"229002500499882",
    "lat":"48.8429985",
    "lng":"2.34866",
    "address":"16 Rue Du Pot De Fer 75005 Paris",
    "pins": ["terrasse","bieres"],
    "picture":"https://scontent.xx.fbcdn.net/hprofile-xaf1/v/t1.0-1/p50x50/400093_257850014281797_1745982355_n.jpg?oh=f7d739364f0e5aa0d99628e3d75aee2a&oe=5662E138"
  },
   {
    "name":"Cité de la Mode et du Design - Les Docks",
    "id":"450757868274258",
    "lat":"48.8409569922",
    "lng":"2.37026738733",
    "address":"34, quai d'Austerlitz 75013 Paris",
    "pins": ["terrasse","bieres"],
    "picture":"https://scontent.xx.fbcdn.net/hprofile-xtp1/v/t1.0-1/p50x50/11258249_1077350518948320_4566332736871698331_n.jpg?oh=9f5fe3df0d43d03ba491c48e539deb23&oe=56604F5B"
  },
   {
    "name":"Club 18",
    "id":"468134446646163",
    "lat":"48.8662392593",
    "lng":"2.3381763915",
    "address":"18 rue de beaujolais 75001 Paris",
    "pins": ["timeout","bieres"],
    "picture":"https://fbcdn-profile-a.akamaihd.net/hprofile-ak-xap1/v/t1.0-1/c5.0.50.50/p50x50/1896833_468135213312753_1519045623_n.jpg?oh=1cd41d612c0405ee846f00f9269eaaab&oe=567FF28C&__gda__=1449215309_2aa85a7e022baed1a49ccf96e6683e0e"
  },
   {
    "name":"Club des Saints-Pères",
    "id":"425920720804138",
    "lat":"48.8569717",
    "lng":"2.3321199",
    "address":"10 rue des Saint-Pères 75007 Paris",
    "pins": ["terrasse","bieres"],
    "picture":"https://scontent.xx.fbcdn.net/hprofile-xpt1/v/t1.0-1/c51.28.347.347/s50x50/18028_449305505132326_1179576027_n.jpg?oh=df9ec345fd673fda7e2979cbcb84c1ee&oe=5673EE17"
  },
   {
    "name":"Coinstot Vino",
    "id":"100571246711186",
    "lat":"48.8705101",
    "lng":"2.3415799",
    "address":"26-28, passage des panoramas 75002 Paris",
    "pins": ["bieres","timeout"],
    "picture":"https://scontent.xx.fbcdn.net/hprofile-xpt1/v/t1.0-1/c37.37.466.466/s50x50/284947_100571960044448_6995486_n.jpg?oh=8de92b75da8399aecaa07ac2eb4315ab&oe=56795CD0"
  },
   {
    "name":"Comestibles & Marchand de Vins",
    "id":"200426463448396",
    "lat":"48.8913918",
    "lng":"2.34354",
    "address":"65 Rue Du Mont Cenis 75018 Paris",
    "pins": ["timeout","bieres"],
    "picture":"https://scontent.xx.fbcdn.net/hprofile-xap1/v/t1.0-1/c0.3.414.414/s50x50/72663_235133076644401_1649456371_n.jpg?oh=ef7a37cc4a3584d1bee2509351bda6a6&oe=5660B3C2"
  },
   {
    "name":"Compagnie des vins surnaturels",
    "id":"260554963977050",
    "lat":"48.8516693",
    "lng":"2.33634",
    "address":"7 rue Lobineau 75006 Paris",
    "pins": ["bieres","lebonbon"],
    "picture":"https://fbcdn-profile-a.akamaihd.net/hprofile-ak-xfp1/v/t1.0-1/c48.48.600.600/s50x50/320579_260555753976971_1726800161_n.jpg?oh=308b9f7495191068b16ed5f2f8cab000&oe=567A727E&__gda__=1450913257_7364a207549aa2965f6162f90427ce42"
  },
   {
    "name":"Comptoir des Archives",
    "id":"289832414450463",
    "lat":"48.8599701",
    "lng":"2.3566101",
    "address":"41, rue des Archives 75004 Paris",
    "pins": ["terrasse","bieres"],
    "picture":"https://fbcdn-profile-a.akamaihd.net/hprofile-ak-prn2/v/t1.0-1/c9.0.50.50/p50x50/1240249_421845967915773_1164576639_n.jpg?oh=8d20a9d0624be3d02276df034050e07c&oe=566DCE2B&__gda__=1449305580_fd8279404f052caf65fde630fb713b5b"
  },
   {
    "name":"Comptoir Général",
    "id":"160352430648712",
    "lat":"48.8725285589",
    "lng":"2.36564334174",
    "address":"80 quai de Jemmapes 75010 Paris",
    "pins": ["bieres","timeout"],
    "picture":"https://fbcdn-profile-a.akamaihd.net/hprofile-ak-xfp1/v/t1.0-1/p50x50/11692722_1179028642114414_5108423617251153640_n.png?oh=3b997c5173f1f7b73dd2c43736b8ce43&oe=56727D1F&__gda__=1449862021_46d8ccf81bc11afa8cd460f3bd445f57"
  },
   {
    "name":"Conserverie",
    "id":"671971619520655",
    "lat":"48.8532715",
    "lng":"2.33863",
    "address":"7 rue de l'Ancienne Comedie 75006 Paris 75006 Paris",
    "pins": ["bieres","terrasse"],
    "picture":"https://fbcdn-profile-a.akamaihd.net/static-ak/rsrc.php/v2/y5/r/j258ei8TIHu.png"
  },
   {
    "name":"Corcoran's Sacré-Cœur",
    "id":"123388207859980",
    "lat":"48.8844764318",
    "lng":"2.34256025391",
    "address":"9-11 Rue Foyatier 75018 Paris",
    "pins": ["lebonbon","bieres"],
    "picture":"https://scontent.xx.fbcdn.net/hprofile-xfp1/v/t1.0-1/c14.0.50.50/p50x50/1425682_170849796447154_1211978869_n.jpg?oh=fb0afac42626694424be1ce80dfcca4c&oe=56746FD1"
  },
   {
    "name":"Corcoran’s Clichy",
    "id":"193194130803369",
    "lat":"48.8844299",
    "lng":"2.3308499",
    "address":"110 Boulevard de Clichy 75018 Paris",
    "pins": ["timeout","bieres"],
    "picture":"https://fbcdn-profile-a.akamaihd.net/static-ak/rsrc.php/v2/yW/r/U2hFrus9i5v.png"
  },
   {
    "name":"Corcoran’s Grands Boulevards",
    "id":"131295146905359",
    "lat":"48.8711395",
    "lng":"2.3441601",
    "address":"23 Boulevards Poissonnière 75002 Paris",
    "pins": ["lebonbon","bieres"],
    "picture":"https://fbcdn-profile-a.akamaihd.net/hprofile-ak-xaf1/v/t1.0-1/c114.22.275.275/s50x50/538462_521704187864451_1814622346_n.jpg?oh=0659e70dda63a93e759ad53e498b6f55&oe=567929A3&__gda__=1448979760_88b8836cbcdcd3155ee1379b7dea00cd"
  },
   {
    "name":"Corcoran’s Saint Michel",
    "id":"143931978985416",
    "lat":"48.8533287",
    "lng":"2.3424301",
    "address":"28 rue Saint André des Arts 75006 Paris",
    "pins": ["bieres","timeout"],
    "picture":"https://fbcdn-profile-a.akamaihd.net/static-ak/rsrc.php/v2/yW/r/U2hFrus9i5v.png"
  },
   {
    "name":"Cork & Cavan",
    "id":"159732814047116",
    "lat":"48.8713417",
    "lng":"2.3657899",
    "address":"70 Quai de Jemmapes 75010 Paris",
    "pins": ["bieres","terrasse"],
    "picture":"https://fbcdn-profile-a.akamaihd.net/static-ak/rsrc.php/v2/yW/r/U2hFrus9i5v.png"
  },
   {
    "name":"Coude à Coude",
    "id":"160926220618367",
    "lat":"48.8611984",
    "lng":"2.34428",
    "address":"46 rue Saint Honoré 75001 Paris",
    "pins": ["bieres","timeout"],
    "picture":"https://scontent.xx.fbcdn.net/hprofile-xfa1/v/t1.0-1/c170.50.621.621/s50x50/425197_348187235225597_780408849_n.jpg?oh=2244bbbac79525c0fcfa97f44a84d748&oe=56714CB4"
  },
   {
    "name":"Cristal",
    "id":"131837983538180",
    "lat":"48.8678398",
    "lng":"2.2936499",
    "address":"11 Place des Etats Unis 75016 Paris",
    "pins": ["terrasse","bieres"],
    "picture":"https://fbcdn-profile-a.akamaihd.net/hprofile-ak-xta1/v/t1.0-1/p50x50/11745746_893341720721132_5827486355080644751_n.jpg?oh=640594ed21ed324419d7d171f2f56e22&oe=567326CF&__gda__=1451195966_a93932a855f4cf4cecd0e2a36242e568"
  },
   {
    "name":"Crocodile",
    "id":"160684580649575",
    "lat":"48.8456988907",
    "lng":"2.34217611474",
    "address":"6 rue Royer-Collard 75005 Paris",
    "pins": ["bieres","timeout"],
    "picture":"https://scontent.xx.fbcdn.net/hprofile-xap1/v/t1.0-1/c153.33.413.413/s50x50/180539_160686900649343_6921843_n.jpg?oh=7840523abf4da81054e2fabd6bc0a946&oe=566C7EF9"
  },
   {
    "name":"Cuba Compagnie",
    "id":"187177204660327",
    "lat":"48.857151",
    "lng":"2.3684399",
    "address":"48 BD BEAUMARCHAIS 75011 Paris",
    "pins": ["bieres","timeout"],
    "picture":"https://fbcdn-profile-a.akamaihd.net/hprofile-ak-xpa1/v/t1.0-1/p50x50/1976989_735028546541854_524462295_n.jpg?oh=acd0479cca6b40f000ecd1ac36bcd917&oe=566D5310&__gda__=1448961818_3966571b33a6108f0de11f696c8dfc03"
  },
   {
    "name":"Dame de Canton",
    "id":"130568203690029",
    "lat":"48.83464304",
    "lng":"2.37770931564",
    "address":"PORT DE LA GARE 75013 Paris",
    "pins": ["bieres","terrasse"],
    "picture":"https://fbcdn-profile-a.akamaihd.net/hprofile-ak-xap1/v/t1.0-1/p50x50/10625068_698430056903838_95105077054406185_n.jpg?oh=36012e37290e42e31ea453be2723af3f&oe=56701D37&__gda__=1450275232_760f210af83527d0366208dec6fe39d2"
  },
   {
    "name":"Dame Jane",
    "id":"335668256609233",
    "lat":"48.8715401",
    "lng":"2.38081",
    "address":"39 rue ramponeau 75020 Paris",
    "pins": ["timeout","bieres"],
    "picture":"https://scontent.xx.fbcdn.net/hprofile-xft1/v/t1.0-1/p50x50/11863488_469120669930657_7274075585170811266_n.jpg?oh=69978bc7d2fc6aa219e50be5ea0ed0d7&oe=56ABA528"
  },
   {
    "name":"Dégustation",
    "id":"688378874583215",
    "lat":"48.8518105",
    "lng":"2.34673",
    "address":"65 rue de Galande 75005 75005 Paris",
    "pins": ["terrasse","bieres"],
    "picture":"https://fbcdn-profile-a.akamaihd.net/hprofile-ak-xpa1/v/t1.0-1/p50x50/10624852_688381684582934_5150090549999347871_n.jpg?oh=e0eea0a896f038dd34243a789b9ac30c&oe=5663667F&__gda__=1450286435_c18627a660ceafe6b99fdce0ff0d17d4"
  },
   {
    "name":"Denize",
    "id":"781977218483446",
    "lat":"48.8650589",
    "lng":"2.3478301",
    "address":"10 Rue Marie Stuart 75002 Paris",
    "pins": ["bieres","timeout"],
    "picture":"https://scontent.xx.fbcdn.net/hprofile-xpf1/v/t1.0-1/p50x50/923420_792459627435205_15504105_n.jpg?oh=a78d4cc85a722932f9f8572d18b3a400&oe=567C1D2C"
  },
   {
    "name":"Dépanneur Terrasse",
    "id":"343467735824845",
    "lat":"48.882309",
    "lng":"2.3331101",
    "address":"25 rue de Douai 75009 Paris",
    "pins": ["terrasse","bieres"],
    "picture":"https://scontent.xx.fbcdn.net/hprofile-xaf1/v/t1.0-1/p50x50/10387633_10205085844165270_1205400200420356033_n.jpg?oh=42571149b119a19493acb4c67b271aa5&oe=567BA3D7"
  },
   {
    "name":"Dernier Bar Avant la Fin du Monde",
    "id":"270617966366652",
    "lat":"48.8581180039",
    "lng":"2.34644726993",
    "address":"19, avenue Victoria 75001 Paris",
    "pins": ["bieres","terrasse"],
    "picture":"https://fbcdn-profile-a.akamaihd.net/hprofile-ak-xpf1/v/t1.0-1/p50x50/10411973_646358715459240_4210437439845970819_n.png?oh=6f8a68e85128bac8bf318cd05bf5cdac&oe=5665CA6F&__gda__=1453960644_807da051bc17f0da98cc89651e4ebed4"
  },
   {
    "name":"Deux Plus Deux",
    "id":"780309075369882",
    "lat":"48.8615584261",
    "lng":"2.37063957167",
    "address":"33 Rue Saint-Sébastien 75011 Paris",
    "pins": ["bieres","rock"],
    "picture":"https://fbcdn-profile-a.akamaihd.net/hprofile-ak-prn2/v/t1.0-1/p50x50/10361500_823758097691646_2900508743872024618_n.jpg?oh=4dd5d9d782b667ee93c73718fdc6dfb3&oe=56665F04&__gda__=1449618879_66e5fc8232e3cb4aad91bff196d53362"
  },
   {
    "name":"Dix Bar",
    "id":"117058621661861",
    "lat":"48.8673897",
    "lng":"2.3652401",
    "address":"10 Place de la République 75011 Paris",
    "pins": ["rock","bieres"],
    "picture":"https://fbcdn-profile-a.akamaihd.net/hprofile-ak-xfa1/v/t1.0-1/c69.66.822.822/s50x50/1240093_640815495952835_815735264_n.png?oh=4b5794b8c8785d1c727ad4918c5937ac&oe=56778BC9&__gda__=1451010297_67c0cb59b8329b09534217deb9c302c7"
  },
   {
    "name":"Djoon",
    "id":"44309696400",
    "lat":"48.8366394",
    "lng":"2.3716099",
    "address":"22 Boulevard Vincent Auriol 75013 Paris",
    "pins": ["bieres","terrasse"],
    "picture":"https://scontent.xx.fbcdn.net/hprofile-xta1/v/t1.0-1/p50x50/10690085_10152502599661401_5000342072818026896_n.jpg?oh=03a265fbd312f64ab0e269c5cc7569b4&oe=56641CB7"
  },
   {
    "name":"Downtown Café",
    "id":"69250455614",
    "lat":"48.8662987",
    "lng":"2.37234",
    "address":"46 rue Jean-Pierre Timbaud 75011 Paris",
    "pins": ["timeout","bieres"],
    "picture":"https://fbcdn-profile-a.akamaihd.net/hprofile-ak-xfa1/v/t1.0-1/c3.0.50.50/p50x50/229327_10150594936265615_459681_n.jpg?oh=7259fa677b6152c9670bec99b4a741fc&oe=56806C3C&__gda__=1449972625_a66cbc96643e0b8536396c6be8d0c58a"
  },
   {
    "name":"Duc des Lombards",
    "id":"261855240550998",
    "lat":"48.8595763491",
    "lng":"2.34876887972",
    "address":"42 rue des Lombards / 21 Bld Sébastopol 75001 Paris",
    "pins": ["bieres","timeout"],
    "picture":"https://fbcdn-profile-a.akamaihd.net/hprofile-ak-xpf1/v/t1.0-1/p50x50/1964779_619265188143333_10883493_n.jpg?oh=ff7b5a28c09129a4271ad8dd05292b09&oe=56765B9B&__gda__=1449739475_b1728df94b6a744611492bda282a9989"
  },
   {
    "name":"Dude",
    "id":"641227159221546",
    "lat":"48.8733597",
    "lng":"2.37076",
    "address":"214, rue Saint-Maur 75010 Paris",
    "pins": ["lebonbon","bieres"],
    "picture":"https://fbcdn-profile-a.akamaihd.net/hprofile-ak-xtp1/v/t1.0-1/c250.3.640.640/s50x50/1391519_678724925471769_178089317_n.jpg?oh=10d02aee8bb948d2234864408e3c72fd&oe=56ABC868&__gda__=1453992624_7736cf1261c999b62a5c84452be9827f"
  },
   {
    "name":"Dune",
    "id":"297305483806574",
    "lat":"48.8548203",
    "lng":"2.3759301",
    "address":"20 rue Keller 75011 Paris",
    "pins": ["lebonbon","bieres"],
    "picture":"https://fbcdn-profile-a.akamaihd.net/hprofile-ak-xfp1/v/t1.0-1/p50x50/10409107_304148573122265_5921122421062603098_n.jpg?oh=fa620041f15dca85cb2d99b2d446778c&oe=565F4708&__gda__=1450435694_5b52e0d96722af972f2eca4636ba1288"
  },
   {
    "name":"Dunkerque",
    "id":"419344464896754",
    "lat":"48.8817482",
    "lng":"2.3462999",
    "address":"1 avenue de Trudaine 75009 Paris",
    "pins": ["bieres","timeout"],
    "picture":"https://fbcdn-profile-a.akamaihd.net/hprofile-ak-xtf1/v/t1.0-1/p50x50/1488241_426207850877082_6466390921103313549_n.png?oh=f80dc61330c84c13a333aa282b149631&oe=5680452D&__gda__=1453957667_67f1a7ff440c833de78f678b269a8295"
  },
   {
    "name":"Ebéniste du Vin",
    "id":"224207044313639",
    "lat":"48.8860397",
    "lng":"2.3180499",
    "address":"72 rue Boursault  75017 Paris",
    "pins": ["bieres","terrasse"],
    "picture":"https://fbcdn-profile-a.akamaihd.net/hprofile-ak-prn2/v/t1.0-1/p50x50/548540_308990292501980_1449767709_n.jpg?oh=798f942033a8e4bb6c355c1a66f10e3e&oe=56713192&__gda__=1450239240_b39f72b829d739fa7da793094cbf7a8a"
  },
   {
    "name":"Ébéniste du vin",
    "id":"224207044313639",
    "lat":"48.8860397",
    "lng":"2.3180499",
    "address":"72 rue Boursault  75017 Paris",
    "pins": ["terrasse","bieres"],
    "picture":"https://fbcdn-profile-a.akamaihd.net/hprofile-ak-prn2/v/t1.0-1/p50x50/548540_308990292501980_1449767709_n.jpg?oh=798f942033a8e4bb6c355c1a66f10e3e&oe=56713192&__gda__=1450239240_b39f72b829d739fa7da793094cbf7a8a"
  },
   {
    "name":"Echelle Un",
    "id":"402481116627151",
    "lat":"48.8476791",
    "lng":"2.37467",
    "address":"29 Avenue Daumesnil 75012 Paris",
    "pins": ["bieres","timeout"],
    "picture":"https://fbcdn-profile-a.akamaihd.net/hprofile-ak-xfp1/v/t1.0-1/p50x50/11539598_402485153293414_2284156103836046996_n.jpg?oh=a2af0a6b1135920d64c8c7fd680ff56e&oe=567E8B12&__gda__=1448975732_35c0053e1dce98e47b7558b599a9ef56"
  },
   {
    "name":"Edgar",
    "id":"555617654459073",
    "lat":"48.8683021267",
    "lng":"2.35013563337",
    "address":"31 rue d'Alexandrie 75002 Paris",
    "pins": ["terrasse","bieres"],
    "picture":"https://fbcdn-profile-a.akamaihd.net/hprofile-ak-xfl1/v/t1.0-1/p50x50/10012483_977959938891507_3493064278756821937_n.jpg?oh=d80ee4ddd26cf80d064b46643b5cd62c&oe=56652DA6&__gda__=1449377629_9b4d2fc10ed978389d68ca5bb7449a59"
  },
   {
    "name":"El Galpon de Unico",
    "id":"122371994481623",
    "lat":"48.8517609",
    "lng":"2.3847401",
    "address":"12 rue Paul Bert 75011 Paris",
    "pins": ["bieres","timeout"],
    "picture":"https://fbcdn-profile-a.akamaihd.net/hprofile-ak-xpa1/v/t1.0-1/c8.0.50.50/p50x50/41034_122372231148266_1075292_n.jpg?oh=2d7fc24c836191b4e92a0925949b8345&oe=567AA11E&__gda__=1449868745_28b0416cd83651d57728941c260d9086"
  },
   {
    "name":"Epicurianu",
    "id":"421926544652281",
    "lat":"48.8677406",
    "lng":"2.36888",
    "address":"104 rue de la Folie-Méricourt 75011 Paris",
    "pins": ["rock","bieres"],
    "picture":"https://fbcdn-profile-a.akamaihd.net/hprofile-ak-xpa1/v/t1.0-1/p50x50/10253866_424962184348717_6717690409424709939_n.jpg?oh=abd9860087446ab6bbc8f5cbc947685a&oe=56716164&__gda__=1451030136_808ca574b95ed8b734637ead9dec100f"
  },
   {
    "name":"Etages",
    "id":"132473260137700",
    "lat":"48.8537541801",
    "lng":"2.33804603477",
    "address":"Rue de Buci 75006 Paris",
    "pins": ["terrasse","bieres"],
    "picture":"https://fbcdn-profile-a.akamaihd.net/static-ak/rsrc.php/v2/yW/r/U2hFrus9i5v.png"
  },
   {
    "name":"Etoile Manquante",
    "id":"411248335603163",
    "lat":"48.8575592",
    "lng":"2.3576801",
    "address":"34 Rue Vieille du Temple 75004 Paris",
    "pins": ["timeout","bieres"],
    "picture":"https://scontent.xx.fbcdn.net/hprofile-xft1/t5.0-1/1086938_411248335603163_147403314_q.jpg"
  },
   {
    "name":"Express de Lyon",
    "id":"250206515102179",
    "lat":"48.8473587",
    "lng":"2.3719201",
    "address":"10, rue de Lyon 75012 Paris",
    "pins": ["rock","bieres"],
    "picture":"https://fbcdn-profile-a.akamaihd.net/hprofile-ak-xap1/v/t1.0-1/p50x50/10407768_601779199944907_606918196755736647_n.png?oh=ffc7a8e376d97290095b901e750c108b&oe=56712192&__gda__=1449911600_2c87a3691ce550d51cb5f2af16d69892"
  },
   {
    "name":"Faille",
    "id":"681668168518621",
    "lat":"48.8657799",
    "lng":"2.3445599",
    "address":"49, rue Montmartre 75002 Paris",
    "pins": ["bieres","timeout"],
    "picture":"https://scontent.xx.fbcdn.net/hprofile-xfp1/v/t1.0-1/p50x50/10606009_895520133800089_5565872562974473569_n.jpg?oh=c51798c287d16855ae0c3c62ad728ade&oe=56677DC5"
  },
   {
    "name":"Falstaff",
    "id":"283409371763010",
    "lat":"48.8536987",
    "lng":"2.3703101",
    "address":"10/12 place de la bastille 75011 Paris",
    "pins": ["timeout","bieres"],
    "picture":"https://fbcdn-profile-a.akamaihd.net/hprofile-ak-prn2/v/t1.0-1/c44.44.552.552/s50x50/539126_283412455096035_832131734_n.jpg?oh=a0cb45bcf4cede9d88bc55f4c89c4579&oe=566EE605&__gda__=1450269942_dfd77558a1062153408d7e63d1406646"
  },
   {
    "name":"Fantôme",
    "id":"552396391485903",
    "lat":"48.875351",
    "lng":"2.3510799",
    "address":"36 rue de paradis 75010 Paris",
    "pins": ["bieres","lebonbon"],
    "picture":"https://scontent.xx.fbcdn.net/hprofile-xaf1/v/t1.0-1/p50x50/1236452_585135801545295_965996303_n.png?oh=6de39cfb5f983143c5197d16293ba886&oe=56A97F24"
  },
   {
    "name":"Fidélité",
    "id":"120291658024990",
    "lat":"48.874649",
    "lng":"2.35673",
    "address":"12 Rue de la Fidélité 75010 Paris",
    "pins": ["timeout","bieres"],
    "picture":"https://fbcdn-profile-a.akamaihd.net/hprofile-ak-xaf1/v/t1.0-1/p50x50/10406494_10205627433239024_5808742895712653741_n.jpg?oh=0422f7489c5688b4459f6c924451f772&oe=56A97826&__gda__=1448939162_c4a29e203ce7c571dc2410d521c6eade"
  },
   {
    "name":"Flat Iron",
    "id":"536441366403784",
    "lat":"48.8745384",
    "lng":"2.3727801",
    "address":"38 rue de sambre et meuse 75010 Paris",
    "pins": ["bieres","lebonbon"],
    "picture":"https://scontent.xx.fbcdn.net/hprofile-xpa1/v/t1.0-1/p50x50/971826_564554116925842_1776669691_n.jpg?oh=ada2294149a936820bd669f5d13fee33&oe=566D993B"
  },
   {
    "name":"Floyd's Bar & Grill",
    "id":"611974608821175",
    "lat":"48.8717194",
    "lng":"2.35232",
    "address":"11 rue d'Enghien  75010 Paris",
    "pins": ["bieres","terrasse"],
    "picture":"https://scontent.xx.fbcdn.net/hprofile-xpf1/v/t1.0-1/p50x50/10416596_896378763714090_9202359770570851486_n.jpg?oh=f06bcb436cbf1de7cc7aa3b243592b23&oe=5663D9EF"
  },
   {
    "name":"Fourmi",
    "id":"161609657184625",
    "lat":"48.8825417",
    "lng":"2.3397501",
    "address":"74 Rue des Martyrs 75018 Paris",
    "pins": ["bieres","rock"],
    "picture":"https://fbcdn-profile-a.akamaihd.net/hprofile-ak-xfa1/t5.0-1/1086914_161609657184625_2040052737_q.jpg"
  },
   {
    "name":"Frenchie",
    "id":"599546870172931",
    "lat":"48.8676491",
    "lng":"2.34761",
    "address":"9, rue du Nil 75002 Paris",
    "pins": ["bieres","terrasse"],
    "picture":"https://scontent.xx.fbcdn.net/hprofile-xap1/v/t1.0-1/c12.0.50.50/p50x50/1478988_652500974877520_2237638803513581964_n.jpg?oh=85d1ca16acfed38ba4e2db1404807038&oe=56AAD69E"
  },
   {
    "name":"Frenchie Bar à Vin",
    "id":"599546870172931",
    "lat":"48.8676491",
    "lng":"2.34761",
    "address":"9, rue du Nil 75002 Paris",
    "pins": ["rock","bieres"],
    "picture":"https://scontent.xx.fbcdn.net/hprofile-xap1/v/t1.0-1/c12.0.50.50/p50x50/1478988_652500974877520_2237638803513581964_n.jpg?oh=85d1ca16acfed38ba4e2db1404807038&oe=56AAD69E"
  },
   {
    "name":"Frog XVI",
    "id":"122567411130977",
    "lat":"48.8647919",
    "lng":"2.28825",
    "address":"110 bis avenue Kléber Paris 75016 Paris",
    "pins": ["bieres","rock"],
    "picture":"https://fbcdn-profile-a.akamaihd.net/hprofile-ak-xpf1/v/t1.0-1/p50x50/1509179_835766959811015_6603448743906115140_n.jpg?oh=658a592ac415b8e577337bf10967de2d&oe=565F9920&__gda__=1450870108_704849dcebe5d9eadbd61d7ef2d72564"
  },
   {
    "name":"Fumoir",
    "id":"171618829550801",
    "lat":"48.8604813",
    "lng":"2.3408501",
    "address":"6 rue de l'Amiral de Coligny 75001 Paris",
    "pins": ["lebonbon","bieres"],
    "picture":"https://fbcdn-profile-a.akamaihd.net/hprofile-ak-xap1/t5.0-1/1086648_171618829550801_1165273275_q.jpg"
  },
   {
    "name":"Furieux",
    "id":"219564788170392",
    "lat":"48.8557101167",
    "lng":"2.3745700744",
    "address":"74 rue de la Roquette 75011 Paris",
    "pins": ["bieres","timeout"],
    "picture":"https://fbcdn-profile-a.akamaihd.net/static-ak/rsrc.php/v2/y5/r/j258ei8TIHu.png"
  },
   {
    "name":"Garance",
    "id":"357770461008978",
    "lat":"48.8373939634",
    "lng":"2.35139067689",
    "address":"18, avenue des Gobelins 75005 Paris",
    "pins": ["bieres","timeout"],
    "picture":"https://fbcdn-profile-a.akamaihd.net/hprofile-ak-xfp1/v/t1.0-1/c11.0.50.50/p50x50/10464301_787146184738068_3620430845624909151_n.jpg?oh=79ef096e08733b28f902643bb14f94bc&oe=566BE301&__gda__=1450387240_98dcf23acd8be8b97e55d317bf302746"
  },
   {
    "name":"Gossima Ping Pong Bar",
    "id":"486600068080251",
    "lat":"48.8648682",
    "lng":"2.38276",
    "address":"4 rue Victor Gelez 75011 Paris",
    "pins": ["bieres","terrasse"],
    "picture":"https://fbcdn-profile-a.akamaihd.net/hprofile-ak-xpa1/v/t1.0-1/p50x50/10006242_649086848498238_1830733221_n.jpg?oh=19f8c8da7749c11044812133c424c822&oe=56741496&__gda__=1449019454_daa7c48f8c50805bab4ea19021b53bee"
  },
   {
    "name":"Grande Crèmerie",
    "id":"431456920278773",
    "lat":"48.8534660529",
    "lng":"2.33782010681",
    "address":"8 rue Grégoire de Tours 75006 Paris",
    "pins": ["lebonbon","bieres"],
    "picture":"https://fbcdn-profile-a.akamaihd.net/hprofile-ak-prn2/v/t1.0-1/p50x50/534034_431643250260140_1820501311_n.jpg?oh=361fd929bfec66d04062086bff1de156&oe=566AEE5E&__gda__=1453987012_babdff7fbe08d08a8bc8083a23d3ec96"
  },
   {
    "name":"Gravity Bar",
    "id":"912990462092285",
    "lat":"48.87323",
    "lng":"2.36079",
    "address":"44 rue des vinaigriers 75010 Paris",
    "pins": ["bieres","timeout"],
    "picture":"https://fbcdn-profile-a.akamaihd.net/hprofile-ak-xtp1/v/t1.0-1/p50x50/11755654_919568288101169_2455405799916198098_n.jpg?oh=60c880b7986f5900490b63354caecfc9&oe=5674FF2E&__gda__=1450797545_d669dd1e4b77e2f40e26d0db942a135d"
  },
   {
    "name":"Great Canadian Pub",
    "id":"145442705498968",
    "lat":"48.8542595",
    "lng":"2.3429",
    "address":"25 Quai Grands Augustins 75006 Paris",
    "pins": ["bieres","lebonbon"],
    "picture":"https://fbcdn-profile-a.akamaihd.net/hprofile-ak-xfp1/v/t1.0-1/c14.14.175.175/s50x50/231188_474438995932669_806507368_n.png?oh=512118b458ac9e5c116df2cdf96e3d25&oe=5660BF08&__gda__=1449344798_96aa3904b685f44282b9fa709f606dd9"
  },
   {
    "name":"Grille",
    "id":"131989813516504",
    "lat":"48.85186",
    "lng":"2.33518",
    "address":"14 rue mabillon 75006 Paris",
    "pins": ["timeout","bieres"],
    "picture":"https://fbcdn-profile-a.akamaihd.net/hprofile-ak-xfp1/v/t1.0-1/c0.0.50.50/p50x50/10151794_812824715433007_7163352273634093846_n.jpg?oh=4ad87ccbb94cf59b3700c854460b7ef6&oe=565EDD2E&__gda__=1450267146_e3abec54120fabdd99374db0ca30e8f2"
  },
   {
    "name":"Gueuze",
    "id":"288651131206719",
    "lat":"48.8472753808",
    "lng":"2.34141678367",
    "address":"19 rue soufflot 75005 Paris",
    "pins": ["bieres","rock"],
    "picture":"https://fbcdn-profile-a.akamaihd.net/hprofile-ak-xfa1/v/t1.0-1/c113.33.414.414/s50x50/429874_288654507873048_400083695_n.jpg?oh=48f65dc9d7f7359894ecf1b943f660ca&oe=56663606&__gda__=1449586998_b1c6f55ee3b0424c1af40ec98b52fa94"
  },
   {
    "name":"Hall's Beer",
    "id":"308078852731127",
    "lat":"48.8616382048",
    "lng":"2.34909804652",
    "address":"68 rue Saint-Denis 75001 Paris",
    "pins": ["bieres","timeout"],
    "picture":"https://fbcdn-profile-a.akamaihd.net/hprofile-ak-xaf1/v/t1.0-1/c4.0.50.50/p50x50/10846073_308079139397765_6326545822072901560_n.jpg?oh=18b03aeb7ba2ca5cfef0693bfc167bf8&oe=567CAE3E&__gda__=1450002029_c24361dd5ebbb838afb17b75cb0d517c"
  },
   {
    "name":"Heures",
    "id":"208626019153729",
    "lat":"48.8378487",
    "lng":"2.28689",
    "address":"299 RUE LECOURBE 75015 Paris",
    "pins": ["bieres","terrasse"],
    "picture":"https://fbcdn-profile-a.akamaihd.net/hprofile-ak-xlp1/v/t1.0-1/p50x50/11156325_1091342574215398_8343985867758358554_n.jpg?oh=ebec1b745f154105319c733dea6878bd&oe=567451B8&__gda__=1451107510_b9aa956614ba92fb8e68606c20afd49a"
  },
   {
    "name":"Hidden Hôtel",
    "id":"142565179095742",
    "lat":"48.8775678067",
    "lng":"2.2934390211",
    "address":"28 rue de l'Arc de Triomphe 75017 Paris",
    "pins": ["bieres","terrasse"],
    "picture":"https://scontent.xx.fbcdn.net/hprofile-xap1/v/t1.0-1/p50x50/1471852_690102781008643_1119172466_n.png?oh=8da687d868a0907b0d9de76b933a5ed7&oe=567AD2F4"
  },
   {
    "name":"Hôtel Bachaumont",
    "id":"494794337344799",
    "lat":"48.8661919",
    "lng":"2.3450201",
    "address":"18, Rue Bachaumont 75002 Paris",
    "pins": ["bieres","terrasse"],
    "picture":"https://scontent.xx.fbcdn.net/hprofile-xtp1/v/t1.0-1/c10.0.50.50/p50x50/1610963_494805557343677_3235910303270034123_n.jpg?oh=99780cb42b3ccccdbef2aed1039569aa&oe=566F0783"
  },
   {
    "name":"Hotel Belle Juliette",
    "id":"315019688565213",
    "lat":"48.8474083",
    "lng":"2.32233",
    "address":"92 rue du Cherche Midi 75005 Paris",
    "pins": ["terrasse","bieres"],
    "picture":"https://fbcdn-profile-a.akamaihd.net/hprofile-ak-xat1/v/t1.0-1/p50x50/10712695_775878239146020_5648020054050504558_n.jpg?oh=762d2e4f493d20c75a8d8148224ec199&oe=566E5B15&__gda__=1451032145_042e398d9456ff8dbe15f6172b6e9b9d"
  },
   {
    "name":"Il Vino",
    "id":"156936617674510",
    "lat":"48.8609695",
    "lng":"2.3104601",
    "address":"13, boulevard Latour Maubourg  75007 Paris",
    "pins": ["lebonbon","bieres"],
    "picture":"https://fbcdn-profile-a.akamaihd.net/static-ak/rsrc.php/v2/y5/r/j258ei8TIHu.png"
  },
   {
    "name":"Inaro",
    "id":"376637495715367",
    "lat":"48.8681576012",
    "lng":"2.36134622413",
    "address":"38 rue René Boulanger 75010 Paris",
    "pins": ["bieres","terrasse"],
    "picture":"https://scontent.xx.fbcdn.net/hprofile-xfa1/v/t1.0-1/p50x50/10401466_723053374407109_7295760755923131112_n.jpg?oh=5eccb35287b97acfe117ffb1429c2748&oe=56626047"
  },
   {
    "name":"Inconnu Bar",
    "id":"180326645411755",
    "lat":"48.8709793",
    "lng":"2.35197",
    "address":"17 rue de Mazagran 75010 Paris",
    "pins": ["bieres","timeout"],
    "picture":"https://fbcdn-profile-a.akamaihd.net/hprofile-ak-xfa1/v/t1.0-1/c35.10.129.129/s50x50/419762_180326822078404_2057132847_n.jpg?oh=a83e35b4179ac9d1a7d7468d2161b18a&oe=56603B88&__gda__=1450003384_b46b0fcbfe6c199da5c5f5cc00f00162"
  },
   {
    "name":"Isolé",
    "id":"268355313374656",
    "lat":"48.8817406",
    "lng":"2.3374",
    "address":"14 Rue Frochot 75009 Paris",
    "pins": ["terrasse","bieres"],
    "picture":"https://scontent.xx.fbcdn.net/hprofile-xpa1/v/t1.0-1/p50x50/1549380_10204354135407374_1644789823296342200_n.jpg?oh=d9033323238cef36cde04dc07a359caa&oe=567D9105"
  },
   {
    "name":"ivress",
    "id":"143244845715549",
    "lat":"48.868721",
    "lng":"2.34761",
    "address":"5 rue poissonnière 75002 Paris",
    "pins": ["terrasse","bieres"],
    "picture":"https://scontent.xx.fbcdn.net/hprofile-xap1/v/t1.0-1/c0.18.50.50/p50x50/71760_157807570925943_6741070_n.jpg?oh=6f86dd42cc23a4b542cf73451b28abfa&oe=5676FB55"
  },
   {
    "name":"J'Go",
    "id":"118255261564754",
    "lat":"48.8525505",
    "lng":"2.33618",
    "address":"6 Rue Clément 75006 Paris",
    "pins": ["bieres","timeout"],
    "picture":"https://fbcdn-profile-a.akamaihd.net/static-ak/rsrc.php/v2/y5/r/j258ei8TIHu.png"
  },
   {
    "name":"Jackets",
    "id":"190085984493533",
    "lat":"48.8666328633",
    "lng":"2.36154934574",
    "address":"20 Rue de Picardie 75003 Paris",
    "pins": ["bieres","terrasse"],
    "picture":"https://fbcdn-profile-a.akamaihd.net/static-ak/rsrc.php/v2/y5/r/j258ei8TIHu.png"
  },
   {
    "name":"Jane Café",
    "id":"1528084887435000",
    "lat":"48.8718796",
    "lng":"2.3717599",
    "address":"197 rue Saint Maur 75010 Paris",
    "pins": ["bieres","terrasse"],
    "picture":"https://scontent.xx.fbcdn.net/hprofile-xft1/v/t1.0-1/c10.0.50.50/p50x50/10336768_1528085800768242_123432337749532786_n.jpg?oh=07abdd6f41fc4a3b53c2f232fc03e1ed&oe=56761B28"
  },
   {
    "name":"Jaurès",
    "id":"163009683712299",
    "lat":"48.883",
    "lng":"2.371",
    "address":"188 boulevard de la villette 75019 Paris",
    "pins": ["terrasse","bieres"],
    "picture":"https://external.xx.fbcdn.net/safe_image.php?d=AQCMigNpR0xTfqlg&w=50&h=50&url=http%3A%2F%2Fupload.wikimedia.org%2Fwikipedia%2Fcommons%2Fthumb%2F8%2F8a%2FP1080807_Paris_X_station_metro_Jaur%25C3%25A8s_boulevard_de_la_Villette_rwk.JPG%2F720px-P1080807_Paris_X_station_metro_Jaur%25C3%25A8s_boulevard_de_la_Villette_rwk.JPG&crop&fallback=hub_likes&prefix=q"
  },
   {
    "name":"John Viande",
    "id":"1401789990091672",
    "lat":"48.8744812",
    "lng":"2.35448",
    "address":"7bis rue de Paradis 75010 Paris",
    "pins": ["bieres","timeout"],
    "picture":"https://fbcdn-profile-a.akamaihd.net/hprofile-ak-xpf1/v/t1.0-1/p50x50/1975136_1403074983296506_1526088148_n.png?oh=6a21c76b5385935ebfd46476087e36a4&oe=566BEF75&__gda__=1448940211_ed9836e71e77eb125ebfb7d8db6202f7"
  },
   {
    "name":"John Weng",
    "id":"442993689157037",
    "lat":"48.8723985638",
    "lng":"2.34801744859",
    "address":"20 rue du Faubourg Poissonnière  75010 Paris",
    "pins": ["timeout","bieres"],
    "picture":"https://fbcdn-profile-a.akamaihd.net/hprofile-ak-xpf1/v/t1.0-1/p50x50/10945770_10152660539465060_6699891826627563494_n.jpg?oh=ee6106210ff5d7650a1a12957b92e4cf&oe=567485C8&__gda__=1451225646_d5a378cee1a395faf795708e3992351c"
  },
   {
    "name":"Joséphine",
    "id":"436408193096227",
    "lat":"48.8557701",
    "lng":"2.33338",
    "address":"42 RUE JACOB 75006 Paris",
    "pins": ["bieres","lebonbon"],
    "picture":"https://scontent.xx.fbcdn.net/hprofile-xpf1/v/t1.0-1/p50x50/11880387_935686136501761_3022220072138741456_n.jpg?oh=c14fa003e7e31117064a7137b0314244&oe=56A9DD6D"
  },
   {
    "name":"Juste le Zinc",
    "id":"416940008464077",
    "lat":"48.8820915",
    "lng":"2.3243101",
    "address":"25, rue de Turin 75008 Paris",
    "pins": ["timeout","bieres"],
    "picture":"https://fbcdn-profile-a.akamaihd.net/hprofile-ak-prn2/v/t1.0-1/p50x50/10891739_420814661409945_1869083095278025362_n.png?oh=2568259fcbd72e03d70520fde04186ca&oe=56A894F0&__gda__=1450261323_64fc06f385dda6bb1958285541553885"
  },
   {
    "name":"Juveniles",
    "id":"255173307929698",
    "lat":"48.8661927386",
    "lng":"2.33716006162",
    "address":"47 rue de Richelieu 75001 Paris",
    "pins": ["bieres","lebonbon"],
    "picture":"https://fbcdn-profile-a.akamaihd.net/static-ak/rsrc.php/v2/y5/r/j258ei8TIHu.png"
  },
   {
    "name":"Kiez",
    "id":"745766438802154",
    "lat":"48.8935814",
    "lng":"2.3333001",
    "address":"24 rue Vauvenargues 75018 Paris",
    "pins": ["bieres","lebonbon"],
    "picture":"https://fbcdn-profile-a.akamaihd.net/hprofile-ak-xfp1/v/t1.0-1/c0.0.50.50/p50x50/10702100_814899098555554_7791320490096585652_n.png?oh=094c454fd4398ed3acc68fd20fe3151e&oe=565F7155&__gda__=1450881137_cac1955a9111f195f1b72c632df6e902"
  },
   {
    "name":"Kitch",
    "id":"158545280848701",
    "lat":"48.8550186",
    "lng":"2.3412099",
    "address":"4, rue des Grands-Augustins 75006 Paris",
    "pins": ["bieres","lebonbon"],
    "picture":"https://scontent.xx.fbcdn.net/hprofile-xtp1/v/t1.0-1/c8.0.50.50/p50x50/11817217_870212319681990_7719968906701227479_n.jpg?oh=a20f4b8e9ed57e2973a9f0297b892b2a&oe=5670360D"
  },
   {
    "name":"L'Abracadabar",
    "id":"535470669832224",
    "lat":"48.8859533365",
    "lng":"2.3821370704",
    "address":"123 Avenue Jean Jaurès -  75019 Paris",
    "pins": ["bieres","timeout"],
    "picture":"https://fbcdn-profile-a.akamaihd.net/hprofile-ak-xap1/v/t1.0-1/c0.0.50.50/p50x50/1522243_620130358032921_1164205405_n.jpg?oh=b403a2d7853f2383d8571bdb579580a8&oe=567224B2&__gda__=1450219123_eaf868efd25b701dca7321c0cc21ef1b"
  },
   {
    "name":"L'Alibi",
    "id":"165226016825700",
    "lat":"48.8920593",
    "lng":"2.3428299",
    "address":"11 rue Lapeyrere 75018 Paris",
    "pins": ["terrasse","bieres"],
    "picture":"https://fbcdn-profile-a.akamaihd.net/static-ak/rsrc.php/v2/y5/r/j258ei8TIHu.png"
  },
   {
    "name":"L'Alimentation Générale",
    "id":"113436052054397",
    "lat":"48.8668404",
    "lng":"2.3743999",
    "address":"64 rue Jean-Pierre Timbaud 75011 Paris",
    "pins": ["bieres","terrasse"],
    "picture":"https://fbcdn-profile-a.akamaihd.net/hprofile-ak-xpf1/v/t1.0-1/c39.39.484.484/s50x50/381295_249040385160629_799223101_n.jpg?oh=4ab81009e415ac8e15c04678e2f99cd4&oe=5670C984&__gda__=1449066472_4f820d86c3420f1b21689f45d3091108"
  },
   {
    "name":"L'Aquarium Club",
    "id":"699908473431605",
    "lat":"48.8594612212",
    "lng":"2.2755596241",
    "address":"5 avenue Albert de MUN 750116 Paris",
    "pins": ["lebonbon","bieres"],
    "picture":"https://fbcdn-profile-a.akamaihd.net/hprofile-ak-xpa1/v/t1.0-1/c1.0.50.50/p50x50/10685446_699908540098265_8391111134188873563_n.jpg?oh=2d69fe5eb7275b0c0474fb44570647b8&oe=567E02A6&__gda__=1449975960_0e219f789145f662e8b6a1ac5b412666"
  },
   {
    "name":"L'Atelier Charonne",
    "id":"106672029492840",
    "lat":"48.8531418",
    "lng":"2.3747499",
    "address":"21, rue de Charonne 75011 Paris",
    "pins": ["bieres","lebonbon"],
    "picture":"https://fbcdn-profile-a.akamaihd.net/hprofile-ak-xaf1/v/t1.0-1/c51.11.139.139/s50x50/282197_106672296159480_1313358167_n.jpg?oh=5ef2e875f09a3dc4839885d838254863&oe=56706C6D&__gda__=1451247094_a4b34de2a7f191f237924d9f487200cc"
  },
   {
    "name":"L'Éclair",
    "id":"520641901298740",
    "lat":"48.8570786",
    "lng":"2.3061299",
    "address":"32 rue Cler à Paris 75007 Paris",
    "pins": ["bieres","terrasse"],
    "picture":"https://fbcdn-profile-a.akamaihd.net/hprofile-ak-xaf1/v/t1.0-1/c21.21.259.259/s50x50/316869_595998273763102_886306962_n.jpg?oh=f604dfa5614f55f95049baf5667c01f9&oe=5668BA11&__gda__=1451016154_5ea60fb0d57819386bf80540ce90375a"
  },
   {
    "name":"L'épicerie Saint Sabin",
    "id":"230191067125528",
    "lat":"48.855280382",
    "lng":"2.37194721505",
    "address":"13, rue Saint Sabin 75011 Paris",
    "pins": ["bieres","rock"],
    "picture":"https://scontent.xx.fbcdn.net/hprofile-xpa1/v/t1.0-1/c0.0.50.50/p50x50/1374787_332584763552824_231988873_n.png?oh=c5a7c14b82eaf36d4787167de5d1e80e&oe=5671DBAA"
  },
   {
    "name":"L'Express Bar",
    "id":"118124171600677",
    "lat":"48.8610916",
    "lng":"2.3438599",
    "address":"23 rue du roule 75001 Paris",
    "pins": ["terrasse","bieres"],
    "picture":"https://fbcdn-profile-a.akamaihd.net/static-ak/rsrc.php/v2/yW/r/U2hFrus9i5v.png"
  },
   {
    "name":"L'Inconnu Bar",
    "id":"180326645411755",
    "lat":"48.8709793",
    "lng":"2.35197",
    "address":"17 rue de Mazagran 75010 Paris",
    "pins": ["bieres","lebonbon"],
    "picture":"https://fbcdn-profile-a.akamaihd.net/hprofile-ak-xfa1/v/t1.0-1/c35.10.129.129/s50x50/419762_180326822078404_2057132847_n.jpg?oh=a83e35b4179ac9d1a7d7468d2161b18a&oe=56603B88&__gda__=1450003384_b46b0fcbfe6c199da5c5f5cc00f00162"
  },
   {
    "name":"l'International",
    "id":"154308851266330",
    "lat":"48.8666801",
    "lng":"2.3797801",
    "address":"5/7 rue moret  75011 Paris",
    "pins": ["terrasse","bieres"],
    "picture":"https://fbcdn-profile-a.akamaihd.net/hprofile-ak-xpf1/v/t1.0-1/p50x50/10420770_837639969599878_1549554353138154855_n.png?oh=74f639ac5937d9b4ee16d0757fda75b8&oe=5670E4A5&__gda__=1449129742_003b05f68b875be66d5a405de9d7a83c"
  },
   {
    "name":"L'Isolé",
    "id":"268355313374656",
    "lat":"48.8817406",
    "lng":"2.3374",
    "address":"14 Rue Frochot 75009 Paris",
    "pins": ["bieres","terrasse"],
    "picture":"https://scontent.xx.fbcdn.net/hprofile-xpa1/v/t1.0-1/p50x50/1549380_10204354135407374_1644789823296342200_n.jpg?oh=d9033323238cef36cde04dc07a359caa&oe=567D9105"
  },
   {
    "name":"L'ivress",
    "id":"143244845715549",
    "lat":"48.868721",
    "lng":"2.34761",
    "address":"5 rue poissonnière 75002 Paris",
    "pins": ["terrasse","bieres"],
    "picture":"https://scontent.xx.fbcdn.net/hprofile-xap1/v/t1.0-1/c0.18.50.50/p50x50/71760_157807570925943_6741070_n.jpg?oh=6f86dd42cc23a4b542cf73451b28abfa&oe=5676FB55"
  },
   {
    "name":"L'Udo",
    "id":"92400443494",
    "lat":"48.8644905",
    "lng":"2.37396",
    "address":"4 bis rue Neuve Popincourt 75011 Paris",
    "pins": ["terrasse","bieres"],
    "picture":"https://fbcdn-profile-a.akamaihd.net/hprofile-ak-xpt1/v/t1.0-1/p50x50/397555_10151252356033495_1002204321_n.jpg?oh=a0a096794e832dc52fab5806ff1bd256&oe=566526DC&__gda__=1450196350_e2c5a15e8b411753bf6fec2090bbd30d"
  },
   {
    "name":"la Favela Chic",
    "id":"281335481877985",
    "lat":"48.868309",
    "lng":"2.3660901",
    "address":"18 rue du faubourg du temple 75011 Paris",
    "pins": ["bieres"],
    "picture":"https://fbcdn-profile-a.akamaihd.net/static-ak/rsrc.php/v2/y5/r/j258ei8TIHu.png"
  },
   {
    "name":"Laparizienne Paris",
    "id":"260903007332234",
    "lat":"48.8676186",
    "lng":"2.3322799",
    "address":"42 Place du Marché Saint-Honore 75001 Paris",
    "pins": ["bieres"],
    "picture":"https://scontent.xx.fbcdn.net/hprofile-xtf1/v/t1.0-1/c0.0.50.50/p50x50/1484230_568311306591401_1872224282_n.jpg?oh=c3321e90745ae65beec0b353b41d6174&oe=566B0009"
  },
   {
    "name":"le Buddha Bar",
    "id":"135902132745",
    "lat":"48.8682353253",
    "lng":"2.32153100145",
    "address":"8/ 12 rue Boissy d'Anglas 75008 Paris",
    "pins": ["bieres"],
    "picture":"https://fbcdn-profile-a.akamaihd.net/hprofile-ak-xft1/v/t1.0-1/p50x50/11745605_10153102452622746_8072192074632166517_n.jpg?oh=c9ec9b0a2206ba71b0d0fcfdc21fc869&oe=565FBDEE&__gda__=1451111335_da78f9e88c697f30ec1d0ffc58115095"
  },
   {
    "name":"le Fanfaron",
    "id":"306077969481938",
    "lat":"48.8516388",
    "lng":"2.3783",
    "address":"6, Rue de la Main d'Or 75011 Paris",
    "pins": ["bieres"],
    "picture":"https://fbcdn-profile-a.akamaihd.net/hprofile-ak-xpf1/v/t1.0-1/p50x50/11018333_788140721275658_1046413468726608022_n.jpg?oh=d4561e601eef60b02caaabae3fb340d7&oe=567B80C3&__gda__=1453906280_0e79f54777b20a67a0743a4ba6bdbe94"
  },
   {
    "name":"Les Chics Types",
    "id":"360112114089052",
    "lat":"48.883892337",
    "lng":"2.38037897598",
    "address":"20 AVENUE DE LAUMIÈRE 75019 Paris",
    "pins": ["bieres"],
    "picture":"https://fbcdn-profile-a.akamaihd.net/hprofile-ak-xfp1/v/t1.0-1/p50x50/10537017_523718957728366_501504044745019269_n.jpg?oh=8d9f4eeaeca4323f608e25eb5a5b552d&oe=565D1FCC&__gda__=1450986969_9db49964fb249a352d6574e29f4f8cb0"
  },
   {
    "name":"Les Heures",
    "id":"208079109327105",
    "lat":"48.83121214",
    "lng":"2.34403846",
    "address":"170 bis avenue de Paris 94300 Vincennes",
    "pins": ["bieres"],
    "picture":"https://fbcdn-profile-a.akamaihd.net/hprofile-ak-xfp1/v/t1.0-1/c159.51.643.643/s50x50/270088_208079252660424_905584516_n.jpg?oh=edb48796b93efc3abf53af1681a5e7c1&oe=565F223D&__gda__=1453940394_441992194c29f5337f6d1b28f79d9aa4"
  },
   {
    "name":"les Papilles",
    "id":"110223435735097",
    "lat":"48.8446675198",
    "lng":"2.34192215428",
    "address":"30 RUE GAY LUSSAC 75005 Paris",
    "pins": ["bieres"],
    "picture":"https://scontent.xx.fbcdn.net/hprofile-xfa1/v/l/t1.0-1/c153.33.413.413/s50x50/247321_110235049067269_384676_n.jpg?oh=318e862ece8d24ed5d6a2c37781a5ede&oe=567FE24A"
  },
   {
    "name":"Les Rouquins",
    "id":"381199525281745",
    "lat":"48.8341484",
    "lng":"2.32216",
    "address":"146 rue du Château  75014 Paris",
    "pins": ["bieres"],
    "picture":"https://scontent.xx.fbcdn.net/hprofile-xfa1/v/t1.0-1/c170.50.621.621/s50x50/23349_429575750444122_672145882_n.jpg?oh=6100be7b9bdc89956c596646bae4ebd1&oe=567B3CCF"
  },
   {
    "name":"Les Trois Baudets",
    "id":"132532233483631",
    "lat":"48.8834496",
    "lng":"2.33447",
    "address":"64 boulevard de Clichy 75018 Paris",
    "pins": ["bieres"],
    "picture":"https://scontent.xx.fbcdn.net/hprofile-xpa1/v/t1.0-1/p50x50/11221509_850811234989057_2122927319630620189_n.jpg?oh=885cb760863ebb48e1ee6410589b881d&oe=5662E376"
  },
   {
    "name":"Little Red Door",
    "id":"358677590879888",
    "lat":"48.8636398",
    "lng":"2.3635299",
    "address":"60 rue Charlot 75003 Paris",
    "pins": ["bieres"],
    "picture":"https://fbcdn-profile-a.akamaihd.net/hprofile-ak-xft1/v/t1.0-1/p50x50/11150495_854019914678984_4746808351135150337_n.jpg?oh=a4c0a549722f797a3649e334d0d8f4d9&oe=567AB3F5&__gda__=1449702369_94f10df888567d072358bba5fc8b860c"
  },
   {
    "name":"Lone Palm",
    "id":"480958998684489",
    "lat":"48.855011",
    "lng":"2.3755701",
    "address":"21 rue keller 75011 Paris",
    "pins": ["bieres"],
    "picture":"https://scontent.xx.fbcdn.net/hprofile-xap1/v/t1.0-1/c1.0.50.50/p50x50/19528_735489459898107_7648642818997166599_n.jpg?oh=cdb4b7a566456727e7f44bba2ee5a00a&oe=5678DAE9"
  },
   {
    "name":"Lou Pascalou",
    "id":"141276561660",
    "lat":"48.866291",
    "lng":"2.3856201",
    "address":"14 rue des Panoyaux 75020 Paris",
    "pins": ["bieres"],
    "picture":"https://scontent.xx.fbcdn.net/hprofile-xpf1/v/t1.0-1/p50x50/10665294_10153395659991661_7170755257855128101_n.jpg?oh=3792a6381457bca8d4db1e3c529a8423&oe=566763BB"
  },
   {
    "name":"Luz Verde",
    "id":"517775621689850",
    "lat":"48.8803902",
    "lng":"2.33762",
    "address":"24 rue Henry Monnier 75009 Paris",
    "pins": ["bieres"],
    "picture":"https://scontent.xx.fbcdn.net/hprofile-xaf1/v/t1.0-1/p50x50/10689481_526188914181854_7274715693002756405_n.jpg?oh=e607c6e6b1a606a79f4ee9a5e2b91a81&oe=56674C4B"
  },
   {
    "name":"Maizon",
    "id":"530161777099757",
    "lat":"48.841316",
    "lng":"2.315122",
    "address":"123 rue oberkampf 75011 Paris",
    "pins": ["bieres"],
    "picture":"https://fbexternal-a.akamaihd.net/safe_image.php?d=AQCx_U_dW3WtVaxU&w=50&h=50&url=https%3A%2F%2Fupload.wikimedia.org%2Fwikipedia%2Fcommons%2Fthumb%2F0%2F00%2FP1030315_Paris_XV_rue_Mizon_rwk.JPG%2F720px-P1030315_Paris_XV_rue_Mizon_rwk.JPG&crop&fallback=hub_likes&prefix=q"
  },
   {
    "name":"Malibv",
    "id":"275382565863197",
    "lat":"48.8647919",
    "lng":"2.3473599",
    "address":"44 rue Tiquetonne 75002 Paris",
    "pins": ["bieres"],
    "picture":"https://scontent.xx.fbcdn.net/hprofile-ash2/v/t1.0-1/p50x50/578072_454311684636950_1016758327_n.png?oh=5cff1c393896ae9c3ce4f3a169b843f9&oe=5664C198"
  },
   {
    "name":"Maria Magdalena",
    "id":"611015542344596",
    "lat":"48.8798218",
    "lng":"2.33498",
    "address":"41 rue de la rochefoucauld 75009 Paris",
    "pins": ["bieres"],
    "picture":"https://fbcdn-profile-a.akamaihd.net/hprofile-ak-xpf1/v/t1.0-1/p50x50/10492153_611016259011191_8668659036239422724_n.png?oh=d85339f2ba5ac77456decd58b810f511&oe=567EB40A&__gda__=1449291937_545990b287142f544e0be4eb05680660"
  },
   {
    "name":"Mary Céleste",
    "id":"396980953716490",
    "lat":"48.8618160629",
    "lng":"2.36499262493",
    "address":"1, Rue Commines 75003 Paris",
    "pins": ["bieres"],
    "picture":"https://scontent.xx.fbcdn.net/hprofile-ash2/v/t1.0-1/c0.14.50.50/p50x50/1393749_534335693314348_536400418_n.jpg?oh=5d855238d9e0d4a0002919a728cd9370&oe=5672455C"
  },
   {
    "name":"Memphis",
    "id":"155098404586431",
    "lat":"48.8706894",
    "lng":"2.3505299",
    "address":"3 Impasse Bonne Nouvelle 75010 Paris",
    "pins": ["bieres"],
    "picture":"https://scontent.xx.fbcdn.net/hprofile-xfp1/v/t1.0-1/c74.24.302.302/s50x50/296907_155098951253043_1185559038_n.jpg?oh=fd81ac01820472a735bf87685e4d3159&oe=5672B12C"
  },
   {
    "name":"Mérou",
    "id":"694870190550972",
    "lat":"48.8746109",
    "lng":"2.35395",
    "address":"11 rue de Paradis 75010 Paris",
    "pins": ["bieres"],
    "picture":"https://scontent.xx.fbcdn.net/hprofile-xpa1/v/t1.0-1/p50x50/10629847_726061087431882_5127686307661154032_n.png?oh=07c36b68ccb3507a7df684d0bced715d&oe=565FBD78"
  },
   {
    "name":"Monfort Théâtre",
    "id":"392967590736182",
    "lat":"48.8302917",
    "lng":"2.30181",
    "address":"106 RUE BRANCION 75015 Paris",
    "pins": ["terrasse","bieres"],
    "picture":"https://fbcdn-profile-a.akamaihd.net/hprofile-ak-xfa1/v/t1.0-1/p50x50/539385_466206420078965_674062857_n.jpg?oh=a453645a7de960f6f32b0d14dcce37ca&oe=5672F482&__gda__=1450153067_30c925330a3e6e1782d8f29b229ff27e"
  },
   {
    "name":"Monsieur",
    "id":"1719972558230285",
    "lat":"48.8513184",
    "lng":"2.33934",
    "address":"13 rue Monsieur Le Prince 75006 Paris",
    "pins": ["bieres","terrasse"],
    "picture":"https://scontent.xx.fbcdn.net/hprofile-xaf1/v/t1.0-1/c10.0.50.50/p50x50/10015641_1720072971553577_3069819296318421496_n.png?oh=aef90575db7cc479422d1ac0dbc7cdbc&oe=567E473E"
  },
   {
    "name":"Monsieur Baba",
    "id":"130931287112889",
    "lat":"48.8726419427",
    "lng":"2.3543379944",
    "address":"69, Rue du Faubourg Saint Denis 75010 Paris",
    "pins": ["terrasse","bieres"],
    "picture":"https://scontent.xx.fbcdn.net/hprofile-frc3/v/l/t1.0-1/p50x50/1394151_10201688037555793_442324684_n.jpg?oh=4b412cea8d1c2077d92cd28b916410ea&oe=567B5AFA"
  },
   {
    "name":"Moonroof",
    "id":"359832064052128",
    "lat":"48.8406529896",
    "lng":"2.37050237046",
    "address":"34 quai d'Austerlitz 75013 Paris",
    "pins": ["terrasse","bieres"],
    "picture":"https://fbcdn-profile-a.akamaihd.net/hprofile-ak-xta1/v/t1.0-1/p50x50/11246261_841754005859929_4243697986060237934_n.jpg?oh=709b3b88b27f3860d9edbaeb113ee91f&oe=566A7E83&__gda__=1451051122_b7763d336a538401ac1901ba9675dbbe"
  },
   {
    "name":"Next",
    "id":"212245005535968",
    "lat":"48.8328056",
    "lng":"2.2871008",
    "address":"1 Place de la Porte de Versailles 75015 Paris",
    "pins": ["bieres"],
    "picture":"https://fbcdn-profile-a.akamaihd.net/hprofile-ak-xfp1/v/t1.0-1/p50x50/11905383_878532972240498_8476534988337255286_n.jpg?oh=54f75079412725e2cd7bd442fac5b9fa&oe=566742EA&__gda__=1450789004_1aef4e745aba1d04e149748046ee23f0"
  },
   {
    "name":"Noche Karaoké",
    "id":"195775303798515",
    "lat":"48.8810196",
    "lng":"2.3345001",
    "address":"7 rue Pierre Fontaine 75009 Paris",
    "pins": ["terrasse","bieres"],
    "picture":"https://fbcdn-profile-a.akamaihd.net/hprofile-ak-xaf1/v/t1.0-1/p50x50/524888_454825961226780_1534808781_n.jpg?oh=ec3de4a0f5cfef115bdac41c60dd8fbe&oe=566A8F70&__gda__=1450081894_3e79e0882f747e76d9cbdfc1d0c1b014"
  },
   {
    "name":"Nono",
    "id":"342708129257543",
    "lat":"48.8770464661",
    "lng":"2.33931184747",
    "address":"rue des Martyrs 75009 Paris",
    "pins": ["bieres","terrasse"],
    "picture":"https://scontent.xx.fbcdn.net/hprofile-xtp1/v/t1.0-1/c12.0.50.50/p50x50/11059513_342710539257302_810036134277529725_n.jpg?oh=335d0e260e24abf1b44066fef282c67d&oe=566B8C82"
  },
   {
    "name":"NordMarais",
    "id":"307053936091593",
    "lat":"48.8674698",
    "lng":"2.35779",
    "address":"39 rue Notre Dame De Nazareth 75003 Paris",
    "pins": ["terrasse","bieres"],
    "picture":"https://fbcdn-profile-a.akamaihd.net/hprofile-ak-xpf1/v/t1.0-1/c15.0.50.50/p50x50/1374200_369868659810120_281426917_n.jpg?oh=27fe9431918121311507804bd592fbf6&oe=566DF8C0&__gda__=1453901999_3db68ebc485d00851a31c80505faf885"
  },
   {
    "name":"O Neil",
    "id":"50194981491",
    "lat":"48.8518486",
    "lng":"2.3336599",
    "address":"20 Rue des Canettes 75006 Paris",
    "pins": ["terrasse","bieres"],
    "picture":"https://fbcdn-profile-a.akamaihd.net/hprofile-ak-xfp1/v/t1.0-1/c0.0.50.50/p50x50/11057451_10153205555296492_7129823519448712007_n.jpg?oh=4230b63461446a43dbd956b14ef19f27&oe=56AA07E8&__gda__=1450623006_adc9c9daf2a24160779f5fa1a55d1f8b"
  },
   {
    "name":"Open Café",
    "id":"156069941082276",
    "lat":"48.8583908",
    "lng":"2.35501",
    "address":"17 rue des Archives 75004 Paris",
    "pins": ["bieres"],
    "picture":"https://fbcdn-profile-a.akamaihd.net/hprofile-ak-xap1/v/t1.0-1/c17.17.431.431/s50x50/10991432_871123509576912_4539760366344689190_n.png?oh=e07a962fbe6f071b1394e78dbd787b49&oe=56636C88&__gda__=1449955615_94c4c3dbf583705727f3921fdece3229"
  },
   {
    "name":"P’tit Canon",
    "id":"122049804520532",
    "lat":"48.8843689",
    "lng":"2.3147399",
    "address":"36 rue legendre 75017 Paris",
    "pins": ["terrasse","bieres"],
    "picture":"https://scontent.xx.fbcdn.net/hprofile-xpa1/v/t1.0-1/c0.0.50.50/p50x50/1800336_10152237705789267_1274364462_n.jpg?oh=916861b6b7fadf7454769632784baa34&oe=5666F5A9"
  },
   {
    "name":"Palacio",
    "id":"123470124374490",
    "lat":"48.8557646",
    "lng":"2.3444653",
    "address":"10 boulevard du Palais 75001 Paris",
    "pins": ["bieres","terrasse"],
    "picture":"https://fbexternal-a.akamaihd.net/safe_image.php?d=AQBu2nDOKxdm98Gs&w=50&h=50&url=https%3A%2F%2Fupload.wikimedia.org%2Fwikipedia%2Fcommons%2Fthumb%2F1%2F14%2FPalais_de_Justice_%2528Paris%2529_June_2010.jpg%2F720px-Palais_de_Justice_%2528Paris%2529_June_2010.jpg&crop&fallback=hub_likes&prefix=q"
  },
   {
    "name":"Palais Maillot",
    "id":"103189524513",
    "lat":"48.8787916784",
    "lng":"2.28240312855",
    "address":"2 place de la Porte Maillot 75017 Paris",
    "pins": ["terrasse","bieres"],
    "picture":"https://fbcdn-profile-a.akamaihd.net/hprofile-ak-xfp1/v/t1.0-1/p50x50/10246855_10152775613149514_367312497124235412_n.jpg?oh=bbf0853ca6fd78be695e093c8d10e3db&oe=567365AB&__gda__=1450022705_ed37ccb1be8e3e4122eefd2978df781c"
  },
   {
    "name":"Panic Room",
    "id":"45273993241",
    "lat":"48.8612595",
    "lng":"2.3676",
    "address":"101, rue Amelot 75011 Paris",
    "pins": ["terrasse","bieres"],
    "picture":"https://scontent.xx.fbcdn.net/hprofile-xpa1/v/t1.0-1/p50x50/10340010_10153444896213242_5104664976078084318_n.png?oh=09a63d2e76e68f635df8d501ca19378e&oe=567F2482"
  },
   {
    "name":"Pasdeloup",
    "id":"1526988524198738",
    "lat":"48.8630104",
    "lng":"2.36731",
    "address":"108 rue Amelot 75011 Paris",
    "pins": ["bieres"],
    "picture":"https://fbcdn-profile-a.akamaihd.net/hprofile-ak-xfp1/v/t1.0-1/c0.0.50.50/p50x50/1238123_1544021569162100_8236721843135904077_n.jpg?oh=dfa4faeaecc289bfc1f32c223a0e5285&oe=567F18BA&__gda__=1451031198_a8b9f3f12319f581529709daeb332e32"
  },
   {
    "name":"Patrick’s Le Ballon Vert",
    "id":"129986870359524",
    "lat":"48.8505211",
    "lng":"2.3861201",
    "address":"33 rue de Montreuil 75011 Paris",
    "pins": ["terrasse","bieres"],
    "picture":"https://fbcdn-profile-a.akamaihd.net/hprofile-ak-xat1/v/t1.0-1/p50x50/10374945_789867854371419_2470787900912872323_n.jpg?oh=c137b8db1c29358f339696e2ec77729c&oe=56637E7D&__gda__=1453896505_386661259f1ee1a7b9e513aa2481e57e"
  },
   {
    "name":"Pau Brasil",
    "id":"158210930918216",
    "lat":"48.8746773264",
    "lng":"2.2933120329",
    "address":"32 Rue de Tilsitt 75017 Paris",
    "pins": ["bieres","terrasse"],
    "picture":"https://fbcdn-profile-a.akamaihd.net/static-ak/rsrc.php/v2/yW/r/U2hFrus9i5v.png"
  },
   {
    "name":"Pavillon des Canaux",
    "id":"646775612019885",
    "lat":"48.8874016",
    "lng":"2.37871",
    "address":"39 quai de Loire 75019 Paris",
    "pins": ["terrasse","bieres"],
    "picture":"https://fbcdn-profile-a.akamaihd.net/hprofile-ak-xlf1/v/t1.0-1/p50x50/11987173_1023083644389078_7621528482416972156_n.jpg?oh=7a1bc7e023877a019e5e71de49402fd4&oe=566D8F13&__gda__=1450157649_1f02d6b1e3e3a7fcc984162dc3d16acf"
  },
   {
    "name":"Penty",
    "id":"61405858994",
    "lat":"48.8491058",
    "lng":"2.3771975",
    "address":"11 rue de Cotte 75012  Paris",
    "pins": ["terrasse","bieres"],
    "picture":"https://fbcdn-profile-a.akamaihd.net/hprofile-ak-xpf1/t5.0-1/50553_61405858994_4997284_q.jpg"
  },
   {
    "name":"Petit centre du monde",
    "id":"132179796835598",
    "lat":"48.8699449573",
    "lng":"2.31077015755",
    "address":"1 bis, rue jean Mermoz 75008 Paris",
    "pins": ["bieres"],
    "picture":"https://fbcdn-profile-a.akamaihd.net/hprofile-ak-xpa1/v/t1.0-1/c8.0.50.50/p50x50/11054353_804457742941130_3093188044536953120_n.png?oh=cbe5c34edb27e9aff04c2df978c5e310&oe=56606187&__gda__=1451117753_5f30d3ed37e69809b93b8d04f3e96aa7"
  },
   {
    "name":"Petit Garage",
    "id":"158343570856581",
    "lat":"48.8672218",
    "lng":"2.37536",
    "address":"63 rue Jean-Pierre Timbaud 75011 Paris",
    "pins": ["terrasse","bieres"],
    "picture":"https://fbcdn-profile-a.akamaihd.net/static-ak/rsrc.php/v2/yW/r/U2hFrus9i5v.png"
  },
   {
    "name":"Petit Joseph Dijon",
    "id":"146220682210586",
    "lat":"48.8938488397",
    "lng":"2.34740413965",
    "address":"3, rue Joseph Dijon 75018 Paris",
    "pins": ["bieres","terrasse"],
    "picture":"https://fbcdn-profile-a.akamaihd.net/hprofile-ak-xfa1/v/t1.0-1/p50x50/549976_151515071681147_273219662_n.jpg?oh=2b89a24069b3d1b6f3fe8cae705abe1b&oe=565EDAFF&__gda__=1450425366_4a196abb54950fc8fc338c283ddfd7f5"
  },
   {
    "name":"Petit Journal Montparnasse",
    "id":"291935334268542",
    "lat":"48.8389091",
    "lng":"2.3206601",
    "address":"13, rue du Commandant René Mouchotte 75014 Paris",
    "pins": ["terrasse","bieres"],
    "picture":"https://fbcdn-profile-a.akamaihd.net/hprofile-ak-xlp1/v/t1.0-1/p50x50/1795711_449714301823977_1208972133_n.jpg?oh=d79b28c7db7b0a4fd64614c77343ab81&oe=566E0A40&__gda__=1454051314_5005403379d59c529b04d27caad604bd"
  },
   {
    "name":"Petit Trianon",
    "id":"274052202746129",
    "lat":"48.8827777778",
    "lng":"2.34277777778",
    "address":"80 boulevard de Rochechouart 75018 Paris",
    "pins": ["terrasse","bieres"],
    "picture":"https://external.xx.fbcdn.net/safe_image.php?d=AQArMwXd2sH55ljw&w=50&h=50&url=https%3A%2F%2Fupload.wikimedia.org%2Fwikipedia%2Fcommons%2Fthumb%2F1%2F10%2FLe_trianon_facade.JPG%2F720px-Le_trianon_facade.JPG&crop&fallback=hub_likes&prefix=q"
  },
   {
    "name":"Pigallion",
    "id":"499401423506543",
    "lat":"48.882",
    "lng":"2.3369501",
    "address":"11 Place Pigalle  75009 Paris",
    "pins": ["bieres"],
    "picture":"https://scontent.xx.fbcdn.net/hprofile-xap1/v/t1.0-1/c24.0.50.50/p50x50/1514978_516941478419204_810394593_n.jpg?oh=4867196be0bc4c728f2f2ee5cd1f2280&oe=5666C887"
  },