{

"data": [

      {
      "name":"12",
      "id":"1610520269233388",
      "lat":"48.8557014",
      "lng":"2.34007",
      "address":"12 rue dauphine  75006 Paris",
      "pins": ["lebonbon","rock","terrasse"],
      "picture":"https://fbcdn-profile-a.akamaihd.net/hprofile-ak-xat1/v/t1.0-1/p50x50/11401167_1610524379232977_5166502209900514351_n.png?oh=ec8d5bf287ad95be97970345e92d9df3&oe=567A87BC&__gda__=1449131152_157d54a4e06e132291a6cc7d12be79a4"
    },
     {
      "name":"138",
      "id":"248704888503043",
      "lat":"48.8504486",
      "lng":"2.3794401",
      "address":"138 rue du Faubourg Saint Antoine 75012 Paris",
      "pins": ["bieres","terrasse","lebonbon"],
      "picture":"https://scontent.xx.fbcdn.net/hprofile-xfp1/v/t1.0-1/p50x50/10245451_745841448789382_8899560960115613577_n.jpg?oh=07b37b825a99ef6ad1492ebb6c67a961&oe=567FF919"
    },
     {
      "name":"153",
      "id":"504231379719861",
      "lat":"48.8619614",
      "lng":"2.3517101",
      "address":"153 rue Saint-Martin 75003 Paris",
      "pins": ["rock","lebonbon","terrasse"],
      "picture":"https://scontent.xx.fbcdn.net/hprofile-xfa1/v/t1.0-1/p50x50/11831641_588240511318947_3434447842654720715_n.png?oh=ed0e19f6150e7a55e19e2325104f20c8&oe=565E0E16"
    },
     {
      "name":"1936",
      "id":"777012829044555",
      "lat":"48.9027834525",
      "lng":"2.36667387375",
      "address":"146 Avenue des Magasins Généraux 93200 Saint-Denis",
      "pins": ["timeout","terrasse","bieres"],
      "picture":"https://scontent.xx.fbcdn.net/hprofile-xfp1/v/l/t1.0-1/p50x50/11021126_803499019729269_886215376176522167_n.jpg?oh=14e54764f49de51c09f16955c53ea554&oe=5676CC48"
    },
     {
      "name":"1979",
      "id":"181411385241608",
      "lat":"48.8623591666",
      "lng":"2.34225528685",
      "address":"49 rue berger 75001 Paris",
      "pins": ["timeout","terrasse","bieres"],
      "picture":"https://fbcdn-profile-a.akamaihd.net/hprofile-ak-xfa1/v/t1.0-1/c42.41.507.507/s50x50/420141_300991523283593_1147594692_n.jpg?oh=2501adaab3145fcad9daed7f9d19ec56&oe=567B26EF&__gda__=1450742495_f4fee4738572522706d1e34f9e1314a0"
    },
     {
      "name":"10 Bar",
      "id":"762816580453575",
      "lat":"48.8510513",
      "lng":"2.3385899",
      "address":"10, rue de l'Odéon 75006 Paris",
      "pins": ["timeout","terrasse","bieres"],
      "picture":"https://fbcdn-profile-a.akamaihd.net/hprofile-ak-xpf1/v/t1.0-1/p50x50/1947744_762819853786581_2434971132673095134_n.jpg?oh=d724324bbe400fcb9f3d7f34d2175644&oe=5667CE36&__gda__=1449625418_d25e74818c14c2828cd2a3cbc9d550ef"
    },
     {
      "name":"114 Up On Roof",
      "id":"484740991609685",
      "lat":"48.840229",
      "lng":"2.2354801",
      "address":"Hotel Marriott - 114 route de la Reine 92100 Boulogne-Billancourt",
      "pins": ["timeout","rock","terrasse"],
      "picture":"https://fbcdn-profile-a.akamaihd.net/static-ak/rsrc.php/v2/yW/r/U2hFrus9i5v.png"
    },
     {
      "name":"116 Pages",
      "id":"1567669323514897",
      "lat":"48.8709602",
      "lng":"2.29634",
      "address":"2 rue auguste vacquerie 75116 Paris",
      "pins": ["rock","lebonbon","terrasse"],
      "picture":"https://fbcdn-profile-a.akamaihd.net/hprofile-ak-xft1/v/t1.0-1/p50x50/10994217_1568529360095560_2591488481988879258_n.jpg?oh=54200afb7f3a3b7a9e3f4de2e7b17a39&oe=56664FEC&__gda__=1450834587_9eb5c2a2bba76607d281b3703de0ca0f"
    },
     {
      "name":"11ème Domaine",
      "id":"149746978568651",
      "lat":"48.866909",
      "lng":"2.37361",
      "address":"14 rue des Trois Bornes 75011 Paris",
      "pins": ["terrasse","timeout","lebonbon"],
      "picture":"https://fbcdn-profile-a.akamaihd.net/hprofile-ak-frc3/v/t1.0-1/c0.0.50.50/p50x50/563989_149747701901912_1043907866_n.jpg?oh=37b70cbbec62007c62a0e5490a7e766b&oe=56A9B708&__gda__=1451121539_87ea9c0c9fb6996e19695b9320ca6064"
    },
     {
      "name":"130 Club - Caves Parisiennes",
      "id":"174164036113735",
      "lat":"48.8598873757",
      "lng":"2.34403330877",
      "address":"130 rue Rivoli 75001 Paris",
      "pins": ["lebonbon","terrasse","bieres"],
      "picture":"https://fbcdn-profile-a.akamaihd.net/hprofile-ak-xpt1/v/t1.0-1/c10.0.50.50/p50x50/11072626_348085832054887_8751118454112801993_n.jpg?oh=277b9b742ff8874ebf2646a5ed7bed72&oe=5678B277&__gda__=1449095701_170008f27e647604dd74355eaa82f217"
    },
     {
      "name":"2 bis Café",
      "id":"261800543943016",
      "lat":"48.8476601",
      "lng":"2.3524599",
      "address":"2 bis, rue des écoles 75005 Paris",
      "pins": ["terrasse","rock","timeout"],
      "picture":"https://fbcdn-profile-a.akamaihd.net/hprofile-ak-xpa1/v/t1.0-1/c32.32.395.395/s50x50/226722_394962710626798_285452036_n.jpg?oh=7656ff29f616663dbbf91b35fc1d9563&oe=5670C5EF&__gda__=1449806317_98ec4d561956191b1312402064eaf6e3"
    },
     {
      "name":"25 Degrés Est",
      "id":"162962367048210",
      "lat":"48.8839510496",
      "lng":"2.370664376",
      "address":"Place de la bataille de Stalingrad 75019 Paris",
      "pins": ["bieres","lebonbon","terrasse"],
      "picture":"https://fbcdn-profile-a.akamaihd.net/hprofile-ak-prn2/v/t1.0-1/c19.0.50.50/p50x50/10614160_834775316533575_2718864974548823844_n.jpg?oh=2d609f015ac959754ec8a79b5059e596&oe=566CF0E4&__gda__=1449170699_3762a7f17e9e11463f4589ef3263bbb7"
    },
     {
      "name":"3 Pièces Cuisine",
      "id":"141390109238573",
      "lat":"48.8829308",
      "lng":"2.3180499",
      "address":"101 Rue des Dames 75017 Paris",
      "pins": ["terrasse","timeout","bieres"],
      "picture":"https://scontent.xx.fbcdn.net/hprofile-xta1/t5.0-1/276823_141390109238573_1668404833_q.jpg"
    },
     {
      "name":"36 Corneil",
      "id":"180571935289310",
      "lat":"48.8789101",
      "lng":"2.34553",
      "address":"36 rue de rochechouart 75009 Paris",
      "pins": ["lebonbon","terrasse","bieres"],
      "picture":"https://fbcdn-profile-a.akamaihd.net/hprofile-ak-xaf1/v/t1.0-1/p50x50/246860_223467577666412_5176532_n.jpg?oh=be87bfb73f1402dbc5036e94d4d8bf13&oe=5668E1E3&__gda__=1449746297_07f5e3279198a69b715423ae3e625679"
    },
     {
      "name":"3W Kafé",
      "id":"1555149808054899",
      "lat":"48.8565477491",
      "lng":"2.35845439437",
      "address":"8, rue des Ecouffes 75004 Paris",
      "pins": ["terrasse","bieres","lebonbon"],
      "picture":"https://scontent.xx.fbcdn.net/hprofile-xfa1/v/t1.0-1/c2.0.50.50/p50x50/9782_1555149908054889_3401716021232045665_n.jpg?oh=0cd56848a3f914219c11c63ea1cbcfea&oe=566820F0"
    },
     {
      "name":"A La Française",
      "id":"682468041770401",
      "lat":"48.8559932794",
      "lng":"2.3861996042",
      "address":"50 Rue Léon Frot 75011 Paris",
      "pins": ["lebonbon","terrasse","timeout"],
      "picture":"https://fbcdn-profile-a.akamaihd.net/hprofile-ak-xtp1/v/t1.0-1/p50x50/10931366_1040226025994599_3088412534307950774_n.jpg?oh=3a87fae21ce8462f744454137ca8a897&oe=5671CA1A&__gda__=1450859035_b1ad08f8c58b3fa273bdb36afc3a7f51"
    },
     {
      "name":"A la Marguerite",
      "id":"1615718118666330",
      "lat":"48.8854713",
      "lng":"2.3115301",
      "address":"106 rue Cardinet 75017 Paris",
      "pins": ["terrasse","rock","lebonbon"],
      "picture":"https://scontent.xx.fbcdn.net/hprofile-xtp1/v/t1.0-1/c0.0.50.50/p50x50/11947660_1621335811437894_2621867584729151942_n.jpg?oh=fd6c860825ecedf769621bace9fab80c&oe=566AD3C2"
    },
     {
      "name":"A’Rhûm",
      "id":"264328853594315",
      "lat":"48.8632088",
      "lng":"2.3528099",
      "address":"34, rue du grenier Saint-Lazare 75003 Paris",
      "pins": ["timeout","terrasse","timeout"],
      "picture":"https://fbcdn-profile-a.akamaihd.net/hprofile-ak-xfa1/v/t1.0-1/p50x50/164914_641280959232434_823143604_n.jpg?oh=2e353602e89438f397704005f26440a4&oe=56AAED73&__gda__=1450015898_0ad6392b63523307e6d9f2e4a258c6d7"
    },
     {
      "name":"Ã‚ne Chic",
      "id":"786526098046239",
      "lat":"48.8737907",
      "lng":"2.3503201",
      "address":"37 bis, Rue des Petites Ecuries 75010 Paris",
      "pins": ["bieres","lebonbon","terrasse"],
      "picture":"https://scontent.xx.fbcdn.net/hprofile-xat1/v/t1.0-1/p50x50/10308084_787012984664217_6654614123167298406_n.png?oh=9b3352a580095df5f7619ff58eec05b5&oe=567FC3A3"
    },
     {
      "name":"Accordologue",
      "id":"1597113673876591",
      "lat":"48.8898582",
      "lng":"2.34218",
      "address":"127 rue Caulaincourt  75018 Paris",
      "pins": ["terrasse","lebonbon","bieres"],
      "picture":"https://scontent.xx.fbcdn.net/hprofile-xtp1/v/t1.0-1/c0.0.50.50/p50x50/11137093_1601518453436113_573260230935396751_n.jpg?oh=b1ab15de3e2d859b22bbe86af277b50c&oe=565FA463"
    },
     {
      "name":"Adada",
      "id":"191075480964078",
      "lat":"48.8405609",
      "lng":"2.32232",
      "address":"15 RUE du Maine 75014 Paris",
      "pins": ["lebonbon","bieres","terrasse"],
      "picture":"https://scontent.xx.fbcdn.net/hprofile-xtp1/v/t1.0-1/p50x50/21291_848562105215409_7352170887002027306_n.jpg?oh=746d0d4062ec060a9e51f12e82a024e1&oe=5677CBA8"
    },
     {
      "name":"Agence",
      "id":"209774505717848",
      "lat":"48.8875618",
      "lng":"2.3596301",
      "address":"43 rue Marx Dormoy 75018 Paris",
      "pins": ["rock","timeout","terrasse"],
      "picture":"https://fbcdn-profile-a.akamaihd.net/hprofile-ak-ash2/v/t1.0-1/c140.44.549.549/s50x50/1016516_632352766793351_1459963748_n.png?oh=5836757b62aef9f4c0beb252efe896b8&oe=5673F260&__gda__=1450447897_714cd76386f430a888359a5d710eb7ce"
    },
     {
      "name":"Albion",
      "id":"126387517469916",
      "lat":"48.8765917525",
      "lng":"2.34876481714",
      "address":"80 rue du Faubourg Poissonnière 75010 Paris",
      "pins": ["timeout","lebonbon","terrasse"],
      "picture":"https://fbcdn-profile-a.akamaihd.net/hprofile-ak-xfa1/v/t1.0-1/c0.9.50.50/p50x50/373802_144117729030228_1413863597_n.jpg?oh=b0388d1616cc5e803fa9dcb0d9f711e9&oe=5667D73F&__gda__=1449329519_b4879d1baec429621e62eb4ec5c3a8ed"
    },
     {
      "name":"Alcazar Club",
      "id":"360538417358086",
      "lat":"48.8545309966",
      "lng":"2.33769921989",
      "address":"62 rue mazarine 75006 Paris",
      "pins": ["bieres","rock","terrasse"],
      "picture":"https://scontent.xx.fbcdn.net/hprofile-xaf1/v/t1.0-1/p50x50/1623687_593371820741410_97334266_n.jpg?oh=c5e0c7397098a1d2c849f2398c53b320&oe=5676E9E2"
    },
     {
      "name":"Alchimiste",
      "id":"120500648003666",
      "lat":"48.8432012175",
      "lng":"2.38542813137",
      "address":"181 Rue de Charenton 75012 Paris",
      "pins": ["rock","timeout","terrasse"],
      "picture":"https://fbcdn-profile-a.akamaihd.net/hprofile-ak-xat1/v/t1.0-1/p50x50/10492151_10206335576174916_5561705409647415213_n.jpg?oh=8fd606bf8298b846e6d6a820d70c136f&oe=567C1904&__gda__=1454041891_7206055719de09b125bf562d87d416a2"
    },
     {
      "name":"Alibi",
      "id":"165226016825700",
      "lat":"48.8920593",
      "lng":"2.3428299",
      "address":"11 rue Lapeyrere 75018 Paris",
      "pins": ["bieres","lebonbon","terrasse"],
      "picture":"https://fbcdn-profile-a.akamaihd.net/static-ak/rsrc.php/v2/y5/r/j258ei8TIHu.png"
    },
     {
      "name":"Alimentation Générale",
      "id":"113436052054397",
      "lat":"48.8668404",
      "lng":"2.3743999",
      "address":"64 rue Jean-Pierre Timbaud 75011 Paris",
      "pins": ["rock","lebonbon","terrasse"],
      "picture":"https://fbcdn-profile-a.akamaihd.net/hprofile-ak-xpf1/v/t1.0-1/c39.39.484.484/s50x50/381295_249040385160629_799223101_n.jpg?oh=4ab81009e415ac8e15c04678e2f99cd4&oe=5670C984&__gda__=1449066472_4f820d86c3420f1b21689f45d3091108"
    },
     {
      "name":"Ambre",
      "id":"136600423052332",
      "lat":"48.8524818",
      "lng":"2.3405399",
      "address":"12 Rue de l'eperon 75006 Paris",
      "pins": ["terrasse","timeout","bieres"],
      "picture":"https://fbcdn-profile-a.akamaihd.net/static-ak/rsrc.php/v2/y5/r/j258ei8TIHu.png"
    },
     {
      "name":"Animals",
      "id":"1016334425050526",
      "lat":"48.8254318",
      "lng":"2.3276801",
      "address":"45 rue Sarrette 75014 Paris",
      "pins": ["rock","terrasse","timeout"],
      "picture":"https://scontent.xx.fbcdn.net/hprofile-xtp1/v/t1.0-1/p50x50/11207294_1190556424294991_8940481602053620451_n.jpg?oh=30af8305b580145d15539915a5e2a25d&oe=566A62E2"
    },
     {
      "name":"Apérock Café",
      "id":"114431351917145",
      "lat":"48.8633194",
      "lng":"2.3705201",
      "address":"46 Boulevard Voltaire  75011 Paris",
      "pins": ["terrasse","lebonbon"],
      "picture":"https://scontent.xx.fbcdn.net/hprofile-xpa1/v/t1.0-1/c1.0.50.50/p50x50/994954_756776034349337_830569025_n.jpg?oh=00bf27530086d74c1d7fa37613c3ab56&oe=567C2CCA"
    },
     {
      "name":"Armagnac",
      "id":"183058171705228",
      "lat":"48.8533983594",
      "lng":"2.33851098862",
      "address":"104 rue de Charonne 75011 Paris",
      "pins": ["lebonbon","terrasse"],
      "picture":"https://fbcdn-profile-a.akamaihd.net/hprofile-ak-xpa1/v/t1.0-1/c67.19.236.236/s50x50/165597_183510941659951_3167060_n.jpg?oh=fbe8b7ab225428fa4e52fbf0ef911125&oe=566DE188&__gda__=1449524151_2fcf37a8a7962c4d50b3972757f6e527"
    },
     {
      "name":"Art Source",
      "id":"187045084658994",
      "lat":"48.8650284",
      "lng":"2.3482101",
      "address":"6, rue Marie Stuart 75002 Paris",
      "pins": ["terrasse","lebonbon"],
      "picture":"https://scontent.xx.fbcdn.net/hprofile-xap1/v/t1.0-1/c43.0.50.50/p50x50/1471211_725684487461715_625653179_n.jpg?oh=fbe52624f2b19d212bcdd5139d49f214&oe=5674B063"
    },
     {
      "name":"Aspartinette",
      "id":"288552167852793",
      "lat":"48.8804283",
      "lng":"2.3409901",
      "address":"72 rue Condorcet 75009 Paris",
      "pins": ["lebonbon","terrasse"],
      "picture":"https://fbcdn-profile-a.akamaihd.net/hprofile-ak-xpa1/v/t1.0-1/c34.34.428.428/s50x50/8542_523442634363744_558904320_n.jpg?oh=d7aff19a5281a0e8a84e2d442d5aeab4&oe=566A2248&__gda__=1450159223_1b0ca9f8bb243b0bf89305294d461598"
    },
     {
      "name":"Atelier Ramey",
      "id":"435399229882194",
      "lat":"48.8883286",
      "lng":"2.34671",
      "address":"23 rue Ramey 75018 Paris",
      "pins": ["terrasse","rock"],
      "picture":"https://fbcdn-profile-a.akamaihd.net/hprofile-ak-xap1/v/t1.0-1/c10.0.50.50/p50x50/10268606_725670127521768_91372949057159429_n.png?oh=ff3c097d7f14107b4891421f7bda5295&oe=56763C09&__gda__=1449183501_b27785bf154bfacb6239016655bf77cd"
    },
     {
      "name":"Au Bleu Cerise",
      "id":"423899300996437",
      "lat":"48.8724899",
      "lng":"2.3534501",
      "address":"6 Cour des Petites Écuries 75010 Paris",
      "pins": ["rock","terrasse"],
      "picture":"https://fbcdn-profile-a.akamaihd.net/hprofile-ak-xpf1/v/t1.0-1/c113.33.414.414/s50x50/3847_423902134329487_23489003_n.jpg?oh=a99859c6d77e6b5e68029aa23dd9b62e&oe=5678D82F&__gda__=1449529920_db946a0631fccdbe94d6cd65e3038599"
    },
     {
      "name":"Au Bon Coin",
      "id":"121198391370299",
      "lat":"48.8381954514",
      "lng":"2.35167771395",
      "address":"21 rue de Collégiale 75005 Paris",
      "pins": ["terrasse","timeout"],
      "picture":"https://fbcdn-profile-a.akamaihd.net/hprofile-ak-xfa1/v/t1.0-1/c189.47.583.583/s50x50/487070_129255490564589_760176243_n.jpg?oh=9625e21045c27e3553e1c88e8ca7de78&oe=56A8E510&__gda__=1450336288_b08737e5e257c83126636ca2fc0def6d"
    },
     {
      "name":"Au Lapin Agile",
      "id":"149343501773888",
      "lat":"48.8887215",
      "lng":"2.3399301",
      "address":"22 Rue des Saules 75018 Paris",
      "pins": ["terrasse","timeout"],
      "picture":"https://fbcdn-profile-a.akamaihd.net/hprofile-ak-xfp1/v/t1.0-1/c205.44.549.549/s50x50/377495_291665597541677_2137915214_n.jpg?oh=3757105cf69e745f2ccc3766c3b3dc1c&oe=5668E3A9&__gda__=1449838731_598712786a5c22c3158f57aa8b620e3f"
    },
     {
      "name":"Au Nouveau Nez",
      "id":"293231444145821",
      "lat":"48.8661804",
      "lng":"2.3770001",
      "address":"104 rue Saint Maur 75011 Paris",
      "pins": ["lebonbon","terrasse"],
      "picture":"https://fbcdn-profile-a.akamaihd.net/hprofile-ak-ash2/v/t1.0-1/p50x50/1488305_377628355706129_2090947394_n.png?oh=f157f7c4478c190fd9442face171b390&oe=56A960AF&__gda__=1449318190_7c8b53b39dfeecc710e6b10a0ea2637c"
    },
     {
      "name":"Au Passage",
      "id":"143826422328468",
      "lat":"48.8616221253",
      "lng":"2.36896853686",
      "address":"1 bis passage saint sébastien 75011 Paris",
      "pins": ["terrasse","rock"],
      "picture":"https://fbcdn-profile-a.akamaihd.net/hprofile-ak-xat1/v/t1.0-1/c58.76.762.762/s50x50/11536127_984834751560960_8111417950168135702_n.jpg?oh=56a55cdd868a30b69c724bbdede587e6&oe=566FC987&__gda__=1450436461_26ebf43fb90ba320fb80740b086b0422"
    },
     {
      "name":"Au Petit Chavignol",
      "id":"139380722783376",
      "lat":"48.8855896",
      "lng":"2.31024",
      "address":"78, rue de Tocqueville 75017 Paris",
      "pins": ["rock","terrasse"],
      "picture":"https://fbcdn-profile-a.akamaihd.net/static-ak/rsrc.php/v2/y5/r/j258ei8TIHu.png"
    },
     {
      "name":"Au Petit Moulin",
      "id":"134319434789",
      "lat":"48.8830241034",
      "lng":"2.33305178557",
      "address":"37 rue pierre fontaine 75009 Paris",
      "pins": ["lebonbon","terrasse"],
      "picture":"https://scontent.xx.fbcdn.net/hprofile-xpa1/v/t1.0-1/p50x50/1926833_10152025655544790_1819430691_n.jpg?oh=f3a11cf8daeaea0e8b4b31b9ad213da6&oe=5662B032"
    },
     {
      "name":"Au Trinquet",
      "id":"318713414939412",
      "lat":"48.8373272537",
      "lng":"2.26449865506",
      "address":"8 Quai Saint-Exupéry 75016 Paris",
      "pins": ["terrasse","bieres"],
      "picture":"https://fbcdn-profile-a.akamaihd.net/hprofile-ak-xtp1/v/t1.0-1/p50x50/11329742_676275205849896_1417293099142168406_n.jpg?oh=ad0e309f61c925bd1397f46aa5dcefce&oe=565DAB2C&__gda__=1449176555_8a933ecfe29a044186faf7b0daf122d2"
    },
     {
      "name":"Au Village des Ternes",
      "id":"377287885916",
      "lat":"48.8801804",
      "lng":"2.29057",
      "address":"7, Rue Guersant 75017 Paris",
      "pins": ["timeout","terrasse"],
      "picture":"https://scontent.xx.fbcdn.net/hprofile-xaf1/v/t1.0-1/c127.37.466.466/s50x50/27002_405635385916_845076_n.jpg?oh=afba5be1dba1e0ec42ca22a3aba619ff&oe=567866F6"
    },
     {
      "name":"Au Xème",
      "id":"143273622381853",
      "lat":"48.8642807",
      "lng":"2.3689101",
      "address":"28 boulevard voltaire 75011 Paris",
      "pins": ["timeout","terrasse"],
      "picture":"https://fbcdn-profile-a.akamaihd.net/hprofile-ak-xtp1/v/t1.0-1/c31.0.50.50/p50x50/10552496_912854878757053_6501057459166845133_n.jpg?oh=507c90d658f45b8a072d416b3f1f12e2&oe=567049D8&__gda__=1453946529_5427888b4797197d72bed2830dad0b76"
    },
     {
      "name":"Aubrac Corner",
      "id":"123258511073351",
      "lat":"48.8696404",
      "lng":"2.3052399",
      "address":"37 rue Marbeuf 75008 Paris",
      "pins": ["timeout","terrasse"],
      "picture":"https://fbcdn-profile-a.akamaihd.net/hprofile-ak-xfp1/v/t1.0-1/c24.24.303.303/s50x50/167347_123259904406545_1128025_n.jpg?oh=0862430586d384e14d2e6c26a9083e6d&oe=5670B9C2&__gda__=1450687832_819fecf00ee13d56c15943b15bc19956"
    },
     {
      "name":"Auto Passion Café",
      "id":"443510745711107",
      "lat":"48.8235893",
      "lng":"2.3247399",
      "address":"197 Boulevard Brune 75014 Paris",
      "pins": ["terrasse","rock"],
      "picture":"https://fbcdn-profile-a.akamaihd.net/hprofile-ak-xfa1/v/t1.0-1/c136.29.368.368/s50x50/423206_443510845711097_1521398945_n.jpg?oh=731c988433891a2e25af23c4b62c51e1&oe=5662D47F&__gda__=1451011774_09f5267eef5911d316f669e6c8d8fbe3"
    },
     {
      "name":"Autobus Impérial",
      "id":"446543385508006",
      "lat":"48.862709",
      "lng":"2.3480201",
      "address":"14 rue mondetour 75001 75001 Paris",
      "pins": ["timeout","terrasse"],
      "picture":"https://fbcdn-profile-a.akamaihd.net/hprofile-ak-xft1/v/t1.0-1/c0.0.50.50/p50x50/11208663_446554052173606_4899837422950275622_n.jpg?oh=923ccade65092a8a6fab97b2f49f9b0d&oe=56A9E407&__gda__=1450676343_fc7628f00ce3030d932e58ba445d0109"
    },
     {
      "name":"Aux Deux Cygnes",
      "id":"712820378735630",
      "lat":"48.8555107",
      "lng":"2.3754001",
      "address":"36, rue Keller 75011 Paris",
      "pins": ["bieres","terrasse"],
      "picture":"https://fbcdn-profile-a.akamaihd.net/hprofile-ak-xat1/v/t1.0-1/p50x50/10301186_797759523575048_8373646595437522680_n.jpg?oh=a113893de91f4e5ec53eee114f5d882e&oe=5669927E&__gda__=1449275962_537321c686e03636fadacc4875f5b4cd"
    },
     {
      "name":"Aux Petits Tonneaux",
      "id":"340839235992129",
      "lat":"48.8684082",
      "lng":"2.3659599",
      "address":"17 Rue du Faubourg du Temple 75010 Paris",
      "pins": ["terrasse","lebonbon"],
      "picture":"https://fbcdn-profile-a.akamaihd.net/static-ak/rsrc.php/v2/y5/r/j258ei8TIHu.png"
    },
     {
      "name":"Aux Verres De Contact",
      "id":"294030150611110",
      "lat":"48.8499184",
      "lng":"2.3498199",
      "address":"52, bld Saint Germain 75005 Paris",
      "pins": ["rock","terrasse"],
      "picture":"https://fbcdn-profile-a.akamaihd.net/hprofile-ak-xpf1/v/t1.0-1/c28.28.344.344/s50x50/302133_294031523944306_829845530_n.jpg?oh=af9fe3f19d72f305ba1aaeeaffe46e5c&oe=56683AB8&__gda__=1450425812_c83a5e9e5d2902aa7de27fb20d569673"
    },
     {
      "name":"Ave Maria",
      "id":"562613707082444",
      "lat":"48.8645096",
      "lng":"2.37304",
      "address":"1 rue Jacquard 75011 Paris",
      "pins": ["lebonbon","terrasse"],
      "picture":"https://fbcdn-profile-a.akamaihd.net/hprofile-ak-xtf1/v/t1.0-1/p50x50/13228_562619693748512_1254838279_n.jpg?oh=4eef9465d8e2745804c0fee604331755&oe=56743F6D&__gda__=1449739560_57a8e2d9da86adffe6175cdf85f7e52f"
    },
     {
      "name":"Babylon",
      "id":"148660648503544",
      "lat":"48.8657799",
      "lng":"2.3471401",
      "address":"84 Rue Montorgueil 75002 Paris",
      "pins": ["terrasse","lebonbon"],
      "picture":"https://fbcdn-profile-a.akamaihd.net/static-ak/rsrc.php/v2/y5/r/j258ei8TIHu.png"
    },
     {
      "name":"Babylone Bis",
      "id":"48048072720",
      "lat":"48.8647499",
      "lng":"2.348",
      "address":"34 rue tiquetonne 75002 Paris",
      "pins": ["lebonbon","terrasse"],
      "picture":"https://fbcdn-profile-a.akamaihd.net/hprofile-ak-xtp1/v/t1.0-1/c31.31.391.391/s50x50/1930907_48048917720_9810_n.jpg?oh=ddc677f7eeb95d9f6c1897f79eae00f1&oe=567C2187&__gda__=1453970213_711cfc5d378c32ecb6cc1e08eef7dc20"
    },
     {
      "name":"Ballroom du Beefclub",
      "id":"128418297323376",
      "lat":"48.8641017623",
      "lng":"2.34338669549",
      "address":"58, rue Jean Jacques Rousseau 75001 Paris",
      "pins": ["rock","terrasse"],
      "picture":"https://fbcdn-profile-a.akamaihd.net/hprofile-ak-xaf1/v/t1.0-1/c8.0.50.50/p50x50/10246623_292044524294085_2642801008138041728_n.jpg?oh=3c63e2a9f6b9250a68c6200f5aa7c884&oe=56692B7E&__gda__=1450515245_091f60d9d37dcac0b02dd984f7675447"
    },
     {
      "name":"Balto",
      "id":"153862709828",
      "lat":"48.8552225619",
      "lng":"2.33779908698",
      "address":"15 rue Mazarine  75006 Paris",
      "pins": ["terrasse","timeout"],
      "picture":"https://scontent.xx.fbcdn.net/hprofile-xpf1/t5.0-1/71155_153862709828_414290_q.jpg"
    },
     {
      "name":"Bar Belge",
      "id":"185995714837075",
      "lat":"48.8923988",
      "lng":"2.32705",
      "address":"75 Avenue St Ouen 75017 Paris",
      "pins": ["terrasse","bieres"],
      "picture":"https://scontent.xx.fbcdn.net/hprofile-xfa1/v/t1.0-1/c170.50.621.621/s50x50/429999_185996194837027_1500072695_n.jpg?oh=8e1990dc8fcaef03d5eac5663deb9b17&oe=56AAB0C9"
    },
     {
      "name":"Bar Bristol",
      "id":"104279176284807",
      "lat":"48.8716812",
      "lng":"2.31476",
      "address":"112 rue du Faubourg Saint-Honoré 75008 Paris",
      "pins": ["timeout","terrasse"],
      "picture":"https://scontent.xx.fbcdn.net/hprofile-xpa1/v/t1.0-1/c10.0.50.50/p50x50/11205533_875267089186008_851425054520515430_n.jpg?oh=8e8b982f26d4895218b5d6ddcce1700e&oe=566AD882"
    },
     {
      "name":"Bar Hyatt",
      "id":"147939888581759",
      "lat":"48.8688975925",
      "lng":"2.33018333257",
      "address":"5, rue de la Paix 75002 Paris",
      "pins": ["lebonbon","terrasse"],
      "picture":"https://fbcdn-profile-a.akamaihd.net/hprofile-ak-xfa1/v/t1.0-1/p50x50/10454561_746944528681289_7299162182111568321_n.jpg?oh=72fe88bf54841ae6c2554d9feff3a169&oe=567F9CB7&__gda__=1448978151_13f2c18bd21b7a648d701c0309f68f5b"
    },
     {
      "name":"Bar O",
      "id":"370147986506341",
      "lat":"48.8526688",
      "lng":"2.3454001",
      "address":"11 rue Xavier Privas 75005 Paris",
      "pins": ["terrasse","lebonbon"],
      "picture":"https://scontent.xx.fbcdn.net/hprofile-xfa1/v/t1.0-1/c8.0.50.50/p50x50/11120513_370148803172926_3465604677793951932_n.jpg?oh=c6e116ae23e64fef85323dc71a49c6dd&oe=5668576A"
    },
     {
      "name":"Bar Ourcq",
      "id":"211341572314513",
      "lat":"48.8864708",
      "lng":"2.3771501",
      "address":"68 quai de la Loire 75019 Paris",
      "pins": ["lebonbon","terrasse"],
      "picture":"https://fbcdn-profile-a.akamaihd.net/hprofile-ak-xtf1/v/t1.0-1/c13.0.50.50/p50x50/11251126_789926207789377_6931462189493331171_n.jpg?oh=42f2f6f3fa54d92dc0ad6ef5495c6adc&oe=565D71C1&__gda__=1449145254_3a919ac470c03bbf983b0f869c09fe52"
    },
     {
      "name":"Bar Rouge",
      "id":"381541885347433",
      "lat":"48.8685417",
      "lng":"2.3602901",
      "address":"46 rue rené BOULANGER 75010 Paris",
      "pins": ["terrasse","rock"],
      "picture":"https://fbcdn-profile-a.akamaihd.net/hprofile-ak-xpa1/v/t1.0-1/p50x50/11188183_432172670284354_4494693850560722608_n.jpg?oh=0ba73cebb3aef11c370f97c5850cff59&oe=56806F6D&__gda__=1451093617_a0073093528b65afaad3a3cc85c39028"
    },
     {
      "name":"Barberousse",
      "id":"127371824081693",
      "lat":"48.881031",
      "lng":"2.34636",
      "address":"69 rue Rochechouart 75009 Paris",
      "pins": ["terrasse","lebonbon"],
      "picture":"https://fbexternal-a.akamaihd.net/safe_image.php?d=AQBz789i5QodCCO8&w=50&h=50&url=http%3A%2F%2Fwww.librairiebarberousse.com%2Fwp-content%2Fuploads%2F2011%2F12%2FHeader2.png&crop&fallback=hub_place&prefix=q"
    },
     {
      "name":"Barbershop",
      "id":"77378465813",
      "lat":"48.8645401",
      "lng":"2.3775699",
      "address":"68, avenue de la République 75011 Paris",
      "pins": ["bieres","terrasse"],
      "picture":"https://scontent.xx.fbcdn.net/hprofile-xpf1/v/t1.0-1/p50x50/11855730_10153009827825814_7761817403646238243_n.jpg?oh=0c60c465fd80151bfde50a41cc850328&oe=5666518B"
    },
     {
      "name":"Baromètre",
      "id":"723523984347002",
      "lat":"48.8638306",
      "lng":"2.3696699",
      "address":"38 boulevard Voltaire 75011 Paris",
      "pins": ["bieres","terrasse"],
      "picture":"https://fbcdn-profile-a.akamaihd.net/static-ak/rsrc.php/v2/yW/r/U2hFrus9i5v.png"
    },
     {
      "name":"BarOurcq",
      "id":"211341572314513",
      "lat":"48.8864708",
      "lng":"2.3771501",
      "address":"68 quai de la Loire 75019 Paris",
      "pins": ["rock","terrasse"],
      "picture":"https://fbcdn-profile-a.akamaihd.net/hprofile-ak-xtf1/v/t1.0-1/c13.0.50.50/p50x50/11251126_789926207789377_6931462189493331171_n.jpg?oh=42f2f6f3fa54d92dc0ad6ef5495c6adc&oe=565D71C1&__gda__=1449145254_3a919ac470c03bbf983b0f869c09fe52"
    },
     {
      "name":"Barramundi",
      "id":"149543731780364",
      "lat":"48.8719406",
      "lng":"2.33622",
      "address":"3, rue Taitbout 75009 Paris",
      "pins": ["terrasse","lebonbon"],
      "picture":"https://fbcdn-profile-a.akamaihd.net/hprofile-ak-xfl1/v/t1.0-1/c319.2.287.287/s50x50/1947345_623643447703721_1012311358_n.jpg?oh=c65aa384531a5f5121164fda2f1fff8c&oe=56705EE5&__gda__=1450323789_9cab3b760ac28431b34b2daed6a6d984"
    },
     {
      "name":"Basile",
      "id":"876396742389652",
      "lat":"48.8524094",
      "lng":"2.3383999",
      "address":"109 boulevard saint germain 75006 Paris",
      "pins": ["terrasse","lebonbon"],
      "picture":"https://scontent.xx.fbcdn.net/hprofile-xpa1/v/t1.0-1/p50x50/1511421_898434066852586_6224846328002588568_n.jpg?oh=48bee4c05b4dc03c68be6d55732dac8b&oe=5680E4F9"
    },
     {
      "name":"Baton Rouge",
      "id":"729104107167066",
      "lat":"48.8662186",
      "lng":"2.38008",
      "address":"128 Rue Oberkampf 75011 Paris",
      "pins": ["terrasse","timeout"],
      "picture":"https://fbcdn-profile-a.akamaihd.net/hprofile-ak-xfa1/v/t1.0-1/p50x50/10398028_729107340500076_1869450816235705679_n.jpg?oh=fc5bfe2960540e3128bdaf0fe7a4c670&oe=567022C4&__gda__=1449911444_5a3519fb25b7ab1655df1c94e4291b7b"
    },
     {
      "name":"Bâton Rouge",
      "id":"729104107167066",
      "lat":"48.8662186",
      "lng":"2.38008",
      "address":"128 Rue Oberkampf 75011 Paris",
      "pins": ["lebonbon","terrasse"],
      "picture":"https://fbcdn-profile-a.akamaihd.net/hprofile-ak-xfa1/v/t1.0-1/p50x50/10398028_729107340500076_1869450816235705679_n.jpg?oh=fc5bfe2960540e3128bdaf0fe7a4c670&oe=567022C4&__gda__=1449911444_5a3519fb25b7ab1655df1c94e4291b7b"
    },
     {
      "name":"Be There",
      "id":"1525875374322448",
      "lat":"48.856953598",
      "lng":"2.35955682044",
      "address":"rue des rosiers 75004 Paris",
      "pins": ["terrasse","timeout"],
      "picture":"https://scontent.xx.fbcdn.net/hprofile-xfa1/v/t1.0-1/c0.29.50.50/p50x50/10382847_1527643034145682_9026151130986124406_n.jpg?oh=cbfae7936a50ab88f6bd27a81cb56599&oe=567D261C"
    },
     {
      "name":"Bear's Den",
      "id":"306571042732756",
      "lat":"48.8591194",
      "lng":"2.3500099",
      "address":"6, rue des Lombards 75004 Paris",
      "pins": ["terrasse","lebonbon"],
      "picture":"https://scontent.xx.fbcdn.net/hprofile-xft1/v/t1.0-1/c1.0.50.50/p50x50/1908151_927871457269375_5011364612947007806_n.jpg?oh=d1cc38a7ad620a01b60cee14936763ec&oe=5679299B"
    },
     {
      "name":"Beaurepaire",
      "id":"343982082335714",
      "lat":"48.8693619",
      "lng":"2.3635199",
      "address":"6 rue Beaurepaire 75010 Paris",
      "pins": ["bieres","terrasse"],
      "picture":"https://fbcdn-profile-a.akamaihd.net/hprofile-ak-xap1/v/t1.0-1/p50x50/10847806_801753499891901_2304332845564173298_n.jpg?oh=0d407c08ddaf7853633064bb7eac5db3&oe=56660EF6&__gda__=1449503680_8c14eb565b114b4e04dd6b52b7df5fba"
    },
     {
      "name":"Béguin",
      "id":"389306084486768",
      "lat":"48.8809509",
      "lng":"2.32903",
      "address":"2, rue Cardinal Mercier 75009 Paris",
      "pins": ["terrasse","timeout"],
      "picture":"https://scontent.xx.fbcdn.net/hprofile-xap1/v/t1.0-1/c13.0.50.50/p50x50/1384088_529181340499241_2000475029_n.jpg?oh=224123124afa11d7c248eed9f03dcf4a&oe=567E445D"
    },
     {
      "name":"Belle Hortense",
      "id":"132302596816723",
      "lat":"48.8575096",
      "lng":"2.35747",
      "address":"31 rue Vieille du Temple 75004 Paris",
      "pins": ["bieres","terrasse"],
      "picture":"https://fbcdn-profile-a.akamaihd.net/hprofile-ak-xpa1/v/t1.0-1/c8.0.50.50/p50x50/150953_10151903996049846_2009580370_n.jpg?oh=e37e5b815fb767570b9283f3bef7820b&oe=567AC727&__gda__=1449115034_d00f880e8afeb1ea83a9256492c7e5fb"
    },
     {
      "name":"Bellerive",
      "id":"161204623946182",
      "lat":"48.8879736962",
      "lng":"2.37738250797",
      "address":"71 quai de Seine 75019 Paris",
      "pins": ["terrasse","timeout"],
      "picture":"https://fbcdn-profile-a.akamaihd.net/hprofile-ak-xaf1/v/t1.0-1/c15.0.50.50/p50x50/418333_10149999285994467_1920585607_n.png?oh=72bbf41e3a121557081694b98bde701a&oe=567CB704&__gda__=1451082959_85395ce63eaccbb136ab467d0122e74c"
    },
     {
      "name":"Bellevilloise",
      "id":"357610363343",
      "lat":"48.8683075733",
      "lng":"2.39205675395",
      "address":"19-21 rue Boyer 75020 Paris",
      "pins": ["lebonbon","terrasse"],
      "picture":"https://fbcdn-profile-a.akamaihd.net/hprofile-ak-xpf1/v/t1.0-1/c63.18.248.248/s50x50/307830_10151032609593344_303177978_n.jpg?oh=d75c0a85132d28b037ec2bc2b2f6b3b8&oe=56705A19&__gda__=1450989198_7a26523a876a1f1b1db2bde830f81425"
    },
     {
      "name":"Belmont",
      "id":"293027377465084",
      "lat":"48.8667369551",
      "lng":"2.35007462981",
      "address":"86 Rue Réaumur 75002 Paris",
      "pins": ["terrasse","rock"],
      "picture":"https://scontent.xx.fbcdn.net/hprofile-frc3/v/t1.0-1/p50x50/1002035_10151740605111901_93148540_n.jpg?oh=d46ccb8bfdc8629e4fe8b01991427ea6&oe=5680D6D0"
    },
     {
      "name":"Benedict",
      "id":"181869295343414",
      "lat":"48.8581886",
      "lng":"2.3561101",
      "address":"19, rue sainte croix de la bretonnerie 75004 Paris",
      "pins": ["terrasse","lebonbon"],
      "picture":"https://fbcdn-profile-a.akamaihd.net/hprofile-ak-xtf1/v/t1.0-1/p50x50/1459858_181871008676576_779_n.jpg?oh=bdfcb9ced939f8ca2ec7291c74b47b39&oe=567DC569&__gda__=1450133149_77bac34372612a9758241506f4e79582"
    },
     {
      "name":"Bièrissime",
      "id":"462877600466465",
      "lat":"48.8764191",
      "lng":"2.3555901",
      "address":"85 bis boulevard Magenta 75010 Paris",
      "pins": ["terrasse","rock"],
      "picture":"https://fbcdn-profile-a.akamaihd.net/hprofile-ak-xfa1/v/t1.0-1/c28.10.123.123/s50x50/420072_462884907132401_134598610_n.jpg?oh=6b12ea958441d96f0a63e2a7eae2b30c&oe=567146AC&__gda__=1449299424_fbc46220ca844ee8eab1d09d7289d148"
    },
     {
      "name":"Biotiful Batignolles",
      "id":"1433655110241972",
      "lat":"48.8845215",
      "lng":"2.32602",
      "address":"18 rue Biot 75017 Paris",
      "pins": ["lebonbon","terrasse"],
      "picture":"https://fbcdn-profile-a.akamaihd.net/hprofile-ak-xaf1/v/t1.0-1/p50x50/10710599_1477621339178682_6456584087023577770_n.jpg?oh=089fc2aa95d847ed9dbc1bccf8eeff67&oe=5670155A&__gda__=1449448919_9013ba6dd1296ade5e1719da43235a38"
    },
     {
      "name":"Bistrologist",
      "id":"266315230167921",
      "lat":"48.8745918",
      "lng":"2.30108",
      "address":"16 Avenue de Friedland 75008 75008 Paris",
      "pins": ["terrasse","lebonbon"],
      "picture":"https://fbcdn-profile-a.akamaihd.net/hprofile-ak-xfa1/v/t1.0-1/c55.55.693.693/s50x50/377999_314264912039619_66250899_n.png?oh=843b9d08abe38ab4d252051e35a0f707&oe=567E7934&__gda__=1450500029_8ab00f2fd108ee4a734b3b7a569ba789"
    },
     {
      "name":"Bistrot Blériot",
      "id":"413674405442366",
      "lat":"48.8508148",
      "lng":"2.2778893",
      "address":"7 av Versailles 75016 Paris",
      "pins": ["terrasse","rock"],
      "picture":"https://fbcdn-profile-a.akamaihd.net/hprofile-ak-xft1/v/t1.0-1/c0.0.50.50/p50x50/10414636_413698418773298_4977369955822311629_n.jpg?oh=676b012a7fb551ea1d632ac4b7a6b861&oe=566FFE37&__gda__=1453966919_07bed63a1e96d3c83ce9249497bba1d5"
    },
     {
      "name":"Bizen",
      "id":"272756552448",
      "lat":"48.8681297",
      "lng":"2.3432901",
      "address":"111 rue Réaumur 75002 Paris",
      "pins": ["terrasse","lebonbon"],
      "picture":"https://scontent.xx.fbcdn.net/hprofile-xfp1/v/t1.0-1/c0.0.50.50/p50x50/1975020_10152105857882449_3045361122042473209_n.jpg?oh=466c1bf46de13000d3c96be1c3bf8d8c&oe=566F263C"
    },
     {
      "name":"Bizz’ Art",
      "id":"109177432450881",
      "lat":"48.8790703",
      "lng":"2.3664701",
      "address":"167, Quai de Valmy - Canal St Martin 75010 Paris",
      "pins": ["terrasse","timeout"],
      "picture":"https://fbcdn-profile-a.akamaihd.net/hprofile-ak-xaf1/v/t1.0-1/p50x50/10801869_794094490625835_2148520571014043190_n.jpg?oh=80f20d35295ac92cf6a020082789d63e&oe=567EE479&__gda__=1454068430_7bb5e8d97e9f6e5264bb85c2f731e52f"
    },
     {
      "name":"Bla Bla",
      "id":"289234537834894",
      "lat":"48.8810883",
      "lng":"2.33162",
      "address":"66 rue Blanche 75009 Paris",
      "pins": ["bieres","terrasse"],
      "picture":"https://fbcdn-profile-a.akamaihd.net/hprofile-ak-xft1/v/t1.0-1/p50x50/11156383_828907710534238_3335061747705608504_n.jpg?oh=d72c7fa4f290a802e0b5ee87419397f3&oe=56677E8D&__gda__=1449549721_702bbe27cbeee6d69ffc8d87e049b48a"
    },
     {
      "name":"Bliss",
      "id":"137890896401050",
      "lat":"48.8635292",
      "lng":"2.34359",
      "address":"8 rue Coquillière 75001 Paris",
      "pins": ["timeout","terrasse"],
      "picture":"https://fbcdn-profile-a.akamaihd.net/hprofile-ak-xaf1/v/t1.0-1/p50x50/10362366_333744340149037_8657438844756682729_n.jpg?oh=0fa48a0b91b3f0824d627993429fbab7&oe=567AD1E2&__gda__=1451137621_3804f7106d8b099f4207e5fc76f4293a"
    },
     {
      "name":"Blok Paris",
      "id":"393760110665475",
      "lat":"48.8596382",
      "lng":"2.3482299",
      "address":"33 bis, rue des lombards 75001 Paris",
      "pins": ["terrasse","timeout"],
      "picture":"https://fbcdn-profile-a.akamaihd.net/hprofile-ak-prn2/v/t1.0-1/p50x50/943043_636928183015332_838073767_n.jpg?oh=46c721b38dcb18fb39b295eacad3816b&oe=5667BC86&__gda__=1449499835_7cad357737ab9d3166fb9a8f871ef559"
    },
     {
      "name":"Blue Club",
      "id":"562202757149088",
      "lat":"48.8866386",
      "lng":"2.3463399",
      "address":"rue muller 75018 Paris",
      "pins": ["lebonbon","terrasse"],
      "picture":"https://scontent.xx.fbcdn.net/hprofile-xfp1/v/t1.0-1/p50x50/1013272_10151791587988843_1415533166_n.jpg?oh=8356292afcc4f722b6a9e6f8a01614c2&oe=5677AB64"
    },
     {
      "name":"Bombardier",
      "id":"128800297155291",
      "lat":"48.8466311584",
      "lng":"2.3474560812",
      "address":"2, place du Panthéon 75005 Paris",
      "pins": ["terrasse","lebonbon"],
      "picture":"https://fbcdn-profile-a.akamaihd.net/hprofile-ak-xft1/v/t1.0-1/p50x50/11124838_829551227080191_990715968555917584_n.jpg?oh=328bafffe3ce5a8e2c189da3da3fe222&oe=56724BC0&__gda__=1449487132_36ecbeaa6edd6553ad9f92d54efd66a7"
    },
     {
      "name":"Bonnie and Clyde",
      "id":"1526274110924511",
      "lat":"48.8544502",
      "lng":"2.3312099",
      "address":"184 boulevard saint germain 74006 Paris",
      "pins": ["timeout","terrasse"],
      "picture":"https://fbcdn-profile-a.akamaihd.net/hprofile-ak-xft1/v/t1.0-1/c14.0.50.50/p50x50/10405529_1536581056560483_2939312102195094562_n.jpg?oh=87b6cf258a4231316e878f8e3c28f138&oe=567989D4&__gda__=1449688244_dbcf467cce1dd4151f146d907e1e42b1"
    },
     {
      "name":"Bottle Shop",
      "id":"219349558188826",
      "lat":"48.8511696",
      "lng":"2.3785501",
      "address":"5, rue Trousseau 75011 Paris",
      "pins": ["terrasse","bieres"],
      "picture":"https://fbcdn-profile-a.akamaihd.net/hprofile-ak-xfp1/v/t1.0-1/c12.12.155.155/s50x50/1743501_228632173927231_1456018581_n.jpg?oh=39473c275abf787484b5e6e4ec498ffe&oe=5670A7C7&__gda__=1449379813_b4fed496af35274f8e077f153149e28a"
    },
     {
      "name":"Bozart",
      "id":"296356830419055",
      "lat":"48.8650894",
      "lng":"2.3671501",
      "address":"9 rue Jean-Pierre Timbaud 75011 Paris",
      "pins": ["timeout","terrasse"],
      "picture":"https://fbcdn-profile-a.akamaihd.net/static-ak/rsrc.php/v2/y5/r/j258ei8TIHu.png"
    },
     {
      "name":"Braisenville",
      "id":"215032851848931",
      "lat":"48.8799250934",
      "lng":"2.34503444771",
      "address":"36 rue condorcet 75009 Paris",
      "pins": ["terrasse","lebonbon"],
      "picture":"https://scontent.xx.fbcdn.net/hprofile-xaf1/v/t1.0-1/c71.0.50.50/p50x50/308468_275611519124397_398321098_n.jpg?oh=bb4286c67e114d29135f5677ed9bf5a4&oe=567517B5"
    },
     {
      "name":"Brasserie Barbès",
      "id":"492991500854315",
      "lat":"48.8840408",
      "lng":"2.3497",
      "address":"2 Boulevard Barbes 75018 Paris",
      "pins": ["terrasse","timeout"],
      "picture":"https://fbcdn-profile-a.akamaihd.net/hprofile-ak-xpa1/v/t1.0-1/p50x50/19483_493367697483362_4939228653866817818_n.png?oh=d651ec28ef36377cd1bf079d86b5118d&oe=567D2886&__gda__=1449206699_7758ba414df238f7865c66347e890720"
    },
     {
      "name":"Brewberry",
      "id":"112193145482420",
      "lat":"48.8430697354",
      "lng":"2.34861782113",
      "address":"18 rue du pot de fer 75005 Paris",
      "pins": ["bieres","terrasse"],
      "picture":"https://scontent.xx.fbcdn.net/hprofile-xta1/v/t1.0-1/p50x50/10406908_726445827390479_2873937238541968010_n.jpg?oh=2770fadd6ee579e302074fce305b03f0&oe=5667D575"
    },
     {
      "name":"Brooklyn",
      "id":"432424223499026",
      "lat":"48.8613701",
      "lng":"2.3507099",
      "address":"58 rue Quincampoix 75004 Paris",
      "pins": ["terrasse","timeout"],
      "picture":"https://fbcdn-profile-a.akamaihd.net/static-ak/rsrc.php/v2/yW/r/U2hFrus9i5v.png"
    },
     {
      "name":"Buddha-Bar",
      "id":"135902132745",
      "lat":"48.8682353253",
      "lng":"2.32153100145",
      "address":"8/ 12 rue Boissy d'Anglas 75008 Paris",
      "pins": ["terrasse","timeout"],
      "picture":"https://fbcdn-profile-a.akamaihd.net/hprofile-ak-xft1/v/t1.0-1/p50x50/11745605_10153102452622746_8072192074632166517_n.jpg?oh=c9ec9b0a2206ba71b0d0fcfdc21fc869&oe=565FBDEE&__gda__=1451111335_da78f9e88c697f30ec1d0ffc58115095"
    },
     {
      "name":"Buvette",
      "id":"181502538714153",
      "lat":"48.8804870622",
      "lng":"2.33751623427",
      "address":"28 rue Henry Monnier 75009 Paris",
      "pins": ["timeout","terrasse"],
      "picture":"https://fbcdn-profile-a.akamaihd.net/hprofile-ak-xpf1/t5.0-1/1076032_181502538714153_2134122975_q.jpg"
    },
     {
      "name":"Buvette Gastrothèque",
      "id":"223078044532918",
      "lat":"48.8805164936",
      "lng":"2.33755234508",
      "address":"rue henry monnier 28 75009 Paris",
      "pins": ["terrasse","timeout"],
      "picture":"https://fbcdn-profile-a.akamaihd.net/static-ak/rsrc.php/v2/yW/r/U2hFrus9i5v.png"
    },
     {
      "name":"Café A",
      "id":"146781662051121",
      "lat":"48.8754082",
      "lng":"2.3600099",
      "address":"148 rue du Faubourg Saint-Martin 75010 Paris",
      "pins": ["rock","terrasse"],
      "picture":"https://scontent.xx.fbcdn.net/hprofile-xaf1/v/t1.0-1/p50x50/407781_259987310730555_431919919_n.jpg?oh=a1aba5017875e83d7371577f1d3bb901&oe=566DB5DB"
    },
     {
      "name":"Café caché",
      "id":"115101618524354",
      "lat":"48.8300285",
      "lng":"2.3775499",
      "address":"Quelque part au 104 75019 Paris",
      "pins": ["terrasse","lebonbon"],
      "picture":"https://scontent.xx.fbcdn.net/hprofile-xfa1/v/t1.0-1/c12.12.155.155/s50x50/420137_359429760758204_36511167_n.jpg?oh=d910944d80181084b927543f925724b6&oe=566A1F9E"
    },
     {
      "name":"Café Charbon",
      "id":"418951328208566",
      "lat":"48.8658295",
      "lng":"2.3778",
      "address":"109 rue Oberkampf 75011 Paris",
      "pins": ["timeout","terrasse"],
      "picture":"https://fbcdn-profile-a.akamaihd.net/hprofile-ak-xaf1/v/t1.0-1/p50x50/11855734_605077352929295_2093247455327214982_n.jpg?oh=00d9e13c8d624fdc1c9456ef9cd47f15&oe=56AB9DEB&__gda__=1448934748_94942736b57c29f2cf118e28eec534ea"
    },
     {
      "name":"Café Charlot",
      "id":"247891398557979",
      "lat":"48.8630486",
      "lng":"2.3624499",
      "address":"38 Rue de Bretagne 75003 Paris",
      "pins": ["terrasse","timeout"],
      "picture":"https://scontent.xx.fbcdn.net/hprofile-xpf1/v/t1.0-1/p50x50/261446_247891961891256_593463_n.jpg?oh=a3108144d121604996c722169679dd7a&oe=5669865D"
    },
     {
      "name":"Café Chéri",
      "id":"1421964738108148",
      "lat":"48.8740997",
      "lng":"2.3752401",
      "address":"44 Boulevard de la Villette 75020 Paris",
      "pins": ["lebonbon","terrasse"],
      "picture":"https://fbcdn-profile-a.akamaihd.net/hprofile-ak-xap1/v/t1.0-1/p50x50/19202_1421964804774808_7050143094071348655_n.jpg?oh=63e2adf2fd8761dd7f6ae97e5c4fa6ab&oe=5669AA9F&__gda__=1449242632_41df84a3e85e68f93438e9b3e45b6926"
    },
     {
      "name":"Café Chic",
      "id":"339488202854141",
      "lat":"48.8722687",
      "lng":"2.3128099",
      "address":"126 rue du Faubourg Saint Honoré 75008 Paris",
      "pins": ["terrasse","lebonbon"],
      "picture":"https://fbcdn-profile-a.akamaihd.net/hprofile-ak-xpf1/v/t1.0-1/p50x50/1456141_360179814118313_2123296414_n.jpg?oh=95a5cac291ddab5ac6bc0aac66a564ee&oe=56735E82&__gda__=1450749882_3cd8980919e51b088379a30dba8fdaef"
    },
     {
      "name":"Café Craft",
      "id":"354177147964286",
      "lat":"48.8731995",
      "lng":"2.36307",
      "address":"24, rue des Vinaigriers  75010 Paris",
      "pins": ["timeout","terrasse"],
      "picture":"https://scontent.xx.fbcdn.net/hprofile-xap1/v/t1.0-1/c0.5.50.50/p50x50/549643_407123889336278_525636426_n.jpg?oh=428cae0cba50890910b2ba512ba588d3&oe=5667A2A9"
    },
     {
      "name":"Café de l'Industrie",
      "id":"330954120300440",
      "lat":"48.8554802",
      "lng":"2.3719499",
      "address":"16 rue Saint-Sabin 75011 Paris",
      "pins": ["rock","terrasse"],
      "picture":"https://fbcdn-profile-a.akamaihd.net/hprofile-ak-xft1/v/t1.0-1/p50x50/10157147_732974983414625_3406992790462796253_n.jpg?oh=d7c7ef8bdd66469ab1af1ee644dbb22f&oe=56A9F7B9&__gda__=1450774189_295c68058e9ddb7e32475f6c50a28286"
    },
     {
      "name":"Café des Sports",
      "id":"154278411261977",
      "lat":"48.8738594",
      "lng":"2.3311601",
      "address":"9 Rue de Mogador 75009 Paris",
      "pins": ["terrasse","lebonbon"],
      "picture":"https://fbcdn-profile-a.akamaihd.net/static-ak/rsrc.php/v2/yW/r/U2hFrus9i5v.png"
    },
     {
      "name":"Café du Commerce",
      "id":"196950773677017",
      "lat":"48.8847618",
      "lng":"2.3471",
      "address":"13 rue Clignancourt 75018 Paris",
      "pins": ["rock","terrasse"],
      "picture":"https://fbcdn-profile-a.akamaihd.net/hprofile-ak-xla1/v/t1.0-1/p50x50/11225316_958638130841607_3722057671376054239_n.jpg?oh=aee2dab6c4c9adcf0a08e3c7764b3cf2&oe=56AB7D3E&__gda__=1450049571_382039b8586b427100bedca0fc7ceca2"
    },
     {
      "name":"Café du Passage",
      "id":"5654209669",
      "lat":"48.8524513",
      "lng":"2.3743401",
      "address":"12 rue de Charonne , Bastille 75011 Paris",
      "pins": ["timeout","terrasse"],
      "picture":"https://fbcdn-profile-a.akamaihd.net/hprofile-ak-xfa1/v/t1.0-1/c151.33.416.416/s50x50/207233_10150159928569670_1923941_n.jpg?oh=fe28426e44cfb1bfdc6584e42d8d329b&oe=5667E907&__gda__=1449507127_97a10c48924f5b6212db0c132faf4b1f"
    },
     {
      "name":"Café Etienne Marcel",
      "id":"471575879542608",
      "lat":"48.864630374",
      "lng":"2.34565448834",
      "address":"34, rue etienne marcel 75002 Paris",
      "pins": ["terrasse","lebonbon"],
      "picture":"https://scontent.xx.fbcdn.net/hprofile-xfp1/v/t1.0-1/c78.37.463.463/s50x50/184869_498072320226297_1050327933_n.png?oh=7fa8e58cb2396bf7aeebc4741d91d7ab&oe=5672003D"
    },
     {
      "name":"Café Martini",
      "id":"201696028570",
      "lat":"48.8559303",
      "lng":"2.3670599",
      "address":"11 rue du Pas de la Mule 75004 Paris",
      "pins": ["lebonbon","terrasse"],
      "picture":"https://fbcdn-profile-a.akamaihd.net/hprofile-ak-xta1/v/t1.0-1/c0.0.50.50/p50x50/11080960_10153150824228571_3751999907821263680_n.jpg?oh=7f023f5138990a66efe5e59b60c6c595&oe=567AB51E&__gda__=1449911850_eb2a73b5089b9b959c2c92674fc27836"
    },
     {
      "name":"Café Oz Denfert-Rochereau",
      "id":"222560654424796",
      "lat":"48.8332252984",
      "lng":"2.3337025633",
      "address":"3, place Denfert-Rochereau 75014 Paris",
      "pins": ["terrasse","rock"],
      "picture":"https://fbcdn-profile-a.akamaihd.net/hprofile-ak-xpf1/v/t1.0-1/c0.0.50.50/p50x50/1472072_747746051906251_393091084_n.jpg?oh=b6699dd7e43b111cec93dfa7969dca3a&oe=5668CEF7&__gda__=1451215196_eb40d13d07cd532ea4612b1342f49ec3"
    },
     {
      "name":"Café Tournesol",
      "id":"122290327826653",
      "lat":"48.8404503",
      "lng":"2.3243201",
      "address":"9 rue de la gaîté 75014 Paris",
      "pins": ["lebonbon","terrasse"],
      "picture":"https://fbcdn-profile-a.akamaihd.net/hprofile-ak-xtp1/v/t1.0-1/p50x50/1743740_616356861753328_1761908685_n.jpg?oh=4f286f488830f814d06b21bb7358f53a&oe=567C0781&__gda__=1451086901_3bd3399bd7e35c782833737d7c94b34c"
    },
     {
      "name":"Caffé Créole",
      "id":"222508342217",
      "lat":"48.8579216",
      "lng":"2.3682499",
      "address":"62 Boulevard Beaumarchais 75011 Paris",
      "pins": ["terrasse","bieres"],
      "picture":"https://fbcdn-profile-a.akamaihd.net/hprofile-ak-xft1/v/t1.0-1/p50x50/11062035_10152732617817218_3563978482826908744_n.jpg?oh=e45579c235351153a51fe785fa646449&oe=5669D28C&__gda__=1449199813_603978242d465b5610cc7627a03258d9"
    },
     {
      "name":"Calbar",
      "id":"311786442211198",
      "lat":"48.8486992536",
      "lng":"2.37550429018",
      "address":"82 Rue de Charenton 75012 Paris",
      "pins": ["timeout","terrasse"],
      "picture":"https://scontent.xx.fbcdn.net/hprofile-xpf1/v/t1.0-1/p50x50/11987042_974667319256437_5096216028981689407_n.jpg?oh=3144ce15b6f4ec269485d142f6dc55f7&oe=56A885C3"
    },
     {
      "name":"Cale Sèche",
      "id":"137975779547072",
      "lat":"48.8663788",
      "lng":"2.3859601",
      "address":"18 rue des Panoyaux 75020 Paris",
      "pins": ["terrasse","lebonbon"],
      "picture":"https://fbcdn-profile-a.akamaihd.net/hprofile-ak-xfa1/v/t1.0-1/c11.0.50.50/p50x50/11949484_1071555876189053_5159303417562590402_n.jpg?oh=91ecad65886b12b9d6acef2c59dd3eed&oe=5663CBED&__gda__=1449009605_4d02f48f1c1587fa3572ecfa5302136a"
    },
     {
      "name":"Candelaria",
      "id":"177399535635747",
      "lat":"48.8630028674",
      "lng":"2.3642006858",
      "address":"52 rue de Saintonge 75003 Paris",
      "pins": ["timeout","terrasse"],
      "picture":"https://fbcdn-profile-a.akamaihd.net/hprofile-ak-ash2/v/t1.0-1/c13.0.50.50/p50x50/249137_607189125990117_543841808_n.jpg?oh=7fa42e5f1903d1aea6f246b3b16a2d42&oe=567ABD18&__gda__=1451190241_55dae71c4dd71e37333ceaf4d86d83f5"
    },
     {
      "name":"Cannibale Café",
      "id":"140166016044941",
      "lat":"48.8683395",
      "lng":"2.3792601",
      "address":"93, rue Jean-pierre Timbaud 75011 Paris",
      "pins": ["terrasse","lebonbon"],
      "picture":"https://scontent.xx.fbcdn.net/hprofile-xfa1/v/t1.0-1/p50x50/482302_762481720480031_1888722254422227925_n.jpg?oh=57cafd3f18a2cf7b31d8ea3f70445163&oe=565FC575"
    },
     {
      "name":"Cantine de la Cigale",
      "id":"227012844172243",
      "lat":"48.8822708",
      "lng":"2.3398199",
      "address":"124, boulevard rochechouart 75018 Paris",
      "pins": ["lebonbon","terrasse"],
      "picture":"https://fbcdn-profile-a.akamaihd.net/hprofile-ak-xaf1/v/t1.0-1/p50x50/10151889_227336404139887_1259715125_n.png?oh=673f8554f57d060d392c4f19cac3ee31&oe=5661AB64&__gda__=1450579049_5e2e75190d8e9525a9e2a13ccf87dc85"
    },
     {
      "name":"Cantine Max Y Jeremy",
      "id":"477764229036086",
      "lat":"48.8729401",
      "lng":"2.3543301",
      "address":"75 rue du Faubourg Saint Denis 75010 Paris",
      "pins": ["rock","terrasse"],
      "picture":"https://scontent.xx.fbcdn.net/hprofile-xpf1/v/t1.0-1/p50x50/10303808_477767899035719_7275830402176002725_n.png?oh=5aa697286278d1ab81d1feb972ef42a1&oe=568034A7"
    },
     {
      "name":"Caravane",
      "id":"114912045263173",
      "lat":"48.8683281",
      "lng":"2.3713901",
      "address":"35, rue de la Fontaine au Roi 75011 Paris",
      "pins": ["terrasse","timeout"],
      "picture":"https://fbcdn-profile-a.akamaihd.net/hprofile-ak-xtp1/v/t1.0-1/c13.0.50.50/p50x50/10449892_659191077501931_5163725280324462095_n.jpg?oh=7f915a657751230e264a327793d70812&oe=567D3601&__gda__=1449494648_4df89801f784b1cd3fe93a20d50e87e2"
    },
     {
      "name":"Carillon",
      "id":"133176896730266",
      "lat":"48.8614082",
      "lng":"2.3780401",
      "address":"3 R. Gén Renault 75011 Paris",
      "pins": ["timeout","terrasse"],
      "picture":"https://fbcdn-profile-a.akamaihd.net/static-ak/rsrc.php/v2/y5/r/j258ei8TIHu.png"
    },
     {
      "name":"Carmen",
      "id":"141653399215182",
      "lat":"48.882015818",
      "lng":"2.33410643197",
      "address":"34 Rue Duperré 75009 Paris",
      "pins": ["bieres","terrasse"],
      "picture":"https://fbcdn-profile-a.akamaihd.net/hprofile-ak-xap1/v/t1.0-1/p50x50/10931251_820764471304068_7420821753583052383_n.jpg?oh=d2185808d9e8adf918e3b969ebbad822&oe=567B0394&__gda__=1448983458_551e58251d23a054ba21b7ac9b8b1319"
    },
     {
      "name":"Carreau du Temple",
      "id":"471703352912611",
      "lat":"48.8646317",
      "lng":"2.3622501",
      "address":"4 rue Eugène Spuller - Accueil Billetterie 2 rue Perrée 75003 Paris",
      "pins": ["terrasse","rock"],
      "picture":"https://fbcdn-profile-a.akamaihd.net/hprofile-ak-xtf1/v/t1.0-1/c0.5.50.50/p50x50/1384184_531752246907721_105281229_n.jpg?oh=db096d233422f91cc067601f848ee3a2&oe=5664D674&__gda__=1450187570_9562ae7df1ab541c6faeb15217352777"
    },
     {
      "name":"Cartel Club",
      "id":"799052293476347",
      "lat":"48.8737239629",
      "lng":"2.29823466789",
      "address":"4 Rue Arsène Houssaye 75008 Paris",
      "pins": ["timeout","terrasse"],
      "picture":"https://fbcdn-profile-a.akamaihd.net/hprofile-ak-xtp1/v/t1.0-1/p50x50/11034175_815350878513155_1514525367535719641_n.jpg?oh=f4797ab1b3c9f00a03b1717e469c4414&oe=5668C7DD&__gda__=1450408986_89d5e18acb13344c499827e6a8694297"
    },
     {
      "name":"Castor Club",
      "id":"131753693594498",
      "lat":"48.8519707",
      "lng":"2.34236",
      "address":"14, Rue Hautefeuille 75006 Paris",
      "pins": ["terrasse","lebonbon"],
      "picture":"https://fbcdn-profile-a.akamaihd.net/hprofile-ak-xap1/v/t1.0-1/c36.36.447.447/s50x50/1235986_379299955506536_593186539_n.jpg?oh=ad1d93a03963c15f5081d1f70a57ed00&oe=567DB112&__gda__=1454101703_d0db50e38da9189e10e2e1ad58455d53"
    },
     {
      "name":"Cave à Jojo",
      "id":"108565929213078",
      "lat":"48.8848915",
      "lng":"2.34092",
      "address":"26 Rue Trois Frères 75018 Paris",
      "pins": ["bieres","terrasse"],
      "picture":"https://fbcdn-profile-a.akamaihd.net/hprofile-ak-xpf1/v/t1.0-1/c44.44.552.552/s50x50/403515_334883159914686_1977116231_n.jpg?oh=e27e37663980ed216bca08b8a2bdb497&oe=56726954&__gda__=1450532396_c6a506366f4d957887ec8929dc1a7fc7"
    },
     {
      "name":"Cave de Belleville",
      "id":"439916779490473",
      "lat":"48.8731804",
      "lng":"2.3810899",
      "address":"51 rue de Belleville 75019 Paris",
      "pins": ["terrasse","timeout"],
      "picture":"https://fbcdn-profile-a.akamaihd.net/hprofile-ak-xpf1/v/t1.0-1/p50x50/11071610_474848539330630_3248442680850402443_n.jpg?oh=13166f17a6ade7e8f76549c0712db05b&oe=567C7E07&__gda__=1450539180_b126f528652a255b2ee280514587e0b5"
    },
     {
      "name":"Cave de l'Entracte",
      "id":"116149675392721",
      "lat":"48.8707886",
      "lng":"2.35676",
      "address":"50 rue du Faubourg Saint-Martin  75010 Paris",
      "pins": ["terrasse","bieres"],
      "picture":"https://scontent.xx.fbcdn.net/hprofile-xtp1/v/t1.0-1/p50x50/11694848_117061501968205_779122665507136618_n.jpg?oh=58baef46b9fa1bdeae14406d3498230a&oe=567167EA"
    },
     {
      "name":"Cave de l'insolite",
      "id":"206799669359755",
      "lat":"48.8629239423",
      "lng":"2.3731873886",
      "address":"30 rue de la folie mericourt 75011 Paris",
      "pins": ["timeout","terrasse"],
      "picture":"https://fbcdn-profile-a.akamaihd.net/hprofile-ak-xfp1/v/t1.0-1/c12.12.155.155/s50x50/25935_528499863856399_1232981987_n.jpg?oh=399d70c19cbca884af43dbeab489bb8d&oe=567297D2&__gda__=1450779332_b1ba3da59ef68c44890dc4bcca8b34d4"
    },
     {
      "name":"Cave de Septime",
      "id":"486972634692072",
      "lat":"48.8535881",
      "lng":"2.38083",
      "address":"80 rue de Charonne 75011 Paris",
      "pins": ["terrasse","timeout"],
      "picture":"https://fbcdn-profile-a.akamaihd.net/hprofile-ak-xaf1/v/t1.0-1/c42.0.50.50/p50x50/60629_486973581358644_670398954_n.jpg?oh=ddd813b0d905872d25b46807f99c84c6&oe=56675B92&__gda__=1449348568_0dfbadba8d305d4d9018e09211e59fa4"
    },
     {
      "name":"Cave Marcadet",
      "id":"284083121696707",
      "lat":"48.8913116",
      "lng":"2.3379099",
      "address":"157 rue Marcadet 75018 Paris",
      "pins": ["terrasse","timeout"],
      "picture":"https://scontent.xx.fbcdn.net/hprofile-xpa1/v/t1.0-1/c171.49.618.618/s50x50/603062_335521863219499_1400140773_n.jpg?oh=63e73201d7bf48a17eee2281cb77d8fd&oe=566A5A02"
    },
     {
      "name":"Caveau de la Huchette",
      "id":"499296060181722",
      "lat":"48.8529898696",
      "lng":"2.34634982436",
      "address":"5 rue de la Huchette 75005 Paris",
      "pins": ["lebonbon","terrasse"],
      "picture":"https://fbexternal-a.akamaihd.net/safe_image.php?d=AQDhFlgS5ZrMvudT&w=50&h=50&url=http%3A%2F%2Fupload.wikimedia.org%2Fwikipedia%2Fcommons%2Fthumb%2Fb%2Fbe%2FLe_Caveau_de_la_Huchette.jpg%2F720px-Le_Caveau_de_la_Huchette.jpg&crop&fallback=hub_likes&prefix=q"
    },
     {
      "name":"Caveau des Légendes",
      "id":"193049070727890",
      "lat":"48.8550987",
      "lng":"2.33529",
      "address":"22 rue Jacob 75006 Paris",
      "pins": ["terrasse","rock"],
      "picture":"https://fbcdn-profile-a.akamaihd.net/hprofile-ak-xap1/v/t1.0-1/c8.0.50.50/p50x50/1378568_918267158206074_6408633299068815004_n.jpg?oh=9eb2028807dacdd2269a3c70cee9c2c7&oe=5678BF95&__gda__=1450667409_5e1f2bb46cd688ab7b75bab631f9090e"
    },
     {
      "name":"Caveau des Oublie",
      "id":"140932975936992",
      "lat":"48.8519897",
      "lng":"2.34672",
      "address":"52, rue Galande 75005 Paris",
      "pins": ["terrasse","lebonbon"],
      "picture":"https://fbcdn-profile-a.akamaihd.net/hprofile-ak-xfa1/v/t1.0-1/p50x50/39674_140933965936893_4975037_n.jpg?oh=69a39ed183a5118ed9574e496287a252&oe=567BB8FE&__gda__=1449506487_fb942542ef6827a754b933a1c79df56d"
    },
     {
      "name":"Cavern",
      "id":"293655230673367",
      "lat":"48.8551788",
      "lng":"2.3398299",
      "address":"21 rue Dauphine 75006 Paris",
      "pins": ["terrasse","rock"],
      "picture":"https://scontent.xx.fbcdn.net/hprofile-xpa1/v/t1.0-1/c10.0.50.50/p50x50/10703777_799240286781523_4867689140025342421_n.png?oh=61ef00766bbe5769f289228c46b576a4&oe=567AF3C3"
    },
     {
      "name":"Caves Petrissans",
      "id":"73009080992",
      "lat":"48.8812637",
      "lng":"2.2957342",
      "address":"30 bis, Avenue Niel 75017 Paris",
      "pins": ["timeout","terrasse"],
      "picture":"https://fbcdn-profile-a.akamaihd.net/hprofile-ak-xpf1/v/t1.0-1/c2.0.50.50/p50x50/1920505_10152294346720993_654534006_n.jpg?oh=f771f6744c92d520dd3842230e655ccb&oe=56681A21&__gda__=1449569735_bcc2dd7ab74dd42dfa0264de8d1276b7"
    },
     {
      "name":"Caves Populaires",
      "id":"113011202222238",
      "lat":"48.8847389",
      "lng":"2.32459",
      "address":"22 rue des dames 75017 Paris",
      "pins": ["terrasse","timeout"],
      "picture":"https://fbcdn-profile-a.akamaihd.net/hprofile-ak-xaf1/v/t1.0-1/c16.16.197.197/s50x50/150397_113014522221906_532458513_n.jpg?oh=1cadf11dc6b13cb39eb691b62757ef33&oe=5675A219&__gda__=1451053010_bcc2fa95105e41673f7d4281f4d210aa"
    },
     {
      "name":"Caves Saint Martin",
      "id":"456975877797619",
      "lat":"48.8797302",
      "lng":"2.36326",
      "address":"195, rue du Faubourg Saint-Martin 75010 Paris",
      "pins": ["lebonbon","terrasse"],
      "picture":"https://fbcdn-profile-a.akamaihd.net/hprofile-ak-xpf1/v/t1.0-1/p50x50/10731169_456980087797198_4977433424251929985_n.jpg?oh=424502b93b10205bbff51463ee7b52f7&oe=566217BE&__gda__=1449124885_32a62da4a4502161e3f25a888ec28021"
    },
     {
      "name":"Cent Dix-Sept",
      "id":"582705281775053",
      "lat":"48.8580339187",
      "lng":"2.3816452214",
      "address":"117, rue de la Roquette 75011 Paris",
      "pins": ["terrasse","lebonbon"],
      "picture":"https://scontent.xx.fbcdn.net/hprofile-ash2/v/t1.0-1/c67.66.827.827/s50x50/1005856_583758668336381_1409223726_n.jpg?oh=024720b4093916e4845258454029373c&oe=567F102E"
    },
     {
      "name":"Chacha Club",
      "id":"106571459426311",
      "lat":"48.8621216",
      "lng":"2.3424001",
      "address":"47, rue Berger 75001 Paris",
      "pins": ["timeout","terrasse"],
      "picture":"https://fbcdn-profile-a.akamaihd.net/hprofile-ak-xpa1/v/t1.0-1/p50x50/1452556_741554549261329_5366557464826293196_n.jpg?oh=38e37b4b91c1ce1aac941ba84cdae2dc&oe=5660EA93&__gda__=1451242816_4fcd7af3804eea773b01c2a83490a526"
    },
     {
      "name":"Chai d'Adrien",
      "id":"570791839657544",
      "lat":"48.8661746566",
      "lng":"2.36486977162",
      "address":"39 boulevard du temple 75003 Paris",
      "pins": ["terrasse","bieres"],
      "picture":"https://fbcdn-profile-a.akamaihd.net/hprofile-ak-xfa1/v/t1.0-1/p50x50/1464730_570792206324174_1373859444_n.jpg?oh=e3befc141a02ec18e4782edcba50bdce&oe=565FF67F&__gda__=1449791243_f2d6096629c896c7bd045e88ea2bc1f9"
    },
     {
      "name":"Champmeslé",
      "id":"519843164716620",
      "lat":"48.8671608",
      "lng":"2.3368101",
      "address":"4 rue Chabanais 75002 75002 Paris",
      "pins": ["terrasse","bieres"],
      "picture":"https://fbcdn-profile-a.akamaihd.net/static-ak/rsrc.php/v2/yW/r/U2hFrus9i5v.png"
    },
     {
      "name":"Chapelle des Lombards",
      "id":"158644950823272",
      "lat":"48.8538208",
      "lng":"2.37254",
      "address":"19 rue de Lappe 75011 Paris",
      "pins": ["timeout","terrasse"],
      "picture":"https://fbcdn-profile-a.akamaihd.net/hprofile-ak-xfp1/v/t1.0-1/p50x50/10956268_904988566198689_8422019265590119930_n.jpg?oh=eb62926b4713a686fbdae264081098ff&oe=56702643&__gda__=1449613093_d5726f8f5663f2e1c6e74d357344df84"
    },
     {
      "name":"Charlie Birdy - Commerce",
      "id":"140982152764034",
      "lat":"48.8433113",
      "lng":"2.2934401",
      "address":"Charlie Birdy 1 place Etienne Pernet, 75015 Paris M° Commerce 01 48 28 06 06 75015 Paris",
      "pins": ["rock","terrasse"],
      "picture":"https://fbcdn-profile-a.akamaihd.net/hprofile-ak-xfa1/v/t1.0-1/p50x50/1043973_147751898753726_1223431958_n.jpg?oh=2ef7fa5cb22d0da3dc3e7032547c01d1&oe=566F7C39&__gda__=1450870605_1d460a5db7cd134c68ba4546103fe3a5"
    },
     {
      "name":"Chat Ivre",
      "id":"356840404490011",
      "lat":"48.8550415",
      "lng":"2.3749599",
      "address":"22 rue des taillandiers 75011 Paris",
      "pins": ["timeout","terrasse"],
      "picture":"https://scontent.xx.fbcdn.net/hprofile-xfp1/v/t1.0-1/c0.0.50.50/p50x50/10425420_419386488235402_5129576460717853664_n.jpg?oh=d85a498691d4f4a4026fa69d97d1a976&oe=5672F99F"
    },
     {
      "name":"Château d'Eau",
      "id":"111973818863166",
      "lat":"48.8727777778",
      "lng":"2.35611111111",
      "address":"Boulevard de Strasbourg 75010 Paris",
      "pins": ["terrasse","rock"],
      "picture":"https://fbexternal-a.akamaihd.net/safe_image.php?d=AQDdfMHjqqefmI55&w=50&h=50&url=https%3A%2F%2Fupload.wikimedia.org%2Fwikipedia%2Fcommons%2Fthumb%2F5%2F53%2FMetro_a_Paris_01.JPG%2F720px-Metro_a_Paris_01.JPG&crop&fallback=hub_likes&prefix=q"
    },
     {
      "name":"Chez Alphonse",
      "id":"179565640301",
      "lat":"48.8513298",
      "lng":"2.3817",
      "address":"12 rue Saint Bernard 75011 Paris",
      "pins": ["terrasse","bieres"],
      "picture":"https://scontent.xx.fbcdn.net/hprofile-xft1/t5.0-1/50252_179565640301_7179_q.jpg"
    },
     {
      "name":"Chez Bouboule",
      "id":"777381835648552",
      "lat":"48.8819224236",
      "lng":"2.346633998",
      "address":"0 AVENUE TRUDAINE 75009 Paris",
      "pins": ["terrasse","rock"],
      "picture":"https://scontent.xx.fbcdn.net/hprofile-xfa1/v/t1.0-1/c1.0.50.50/p50x50/10930081_802227076497361_5841134458502235436_n.png?oh=990d302a3ea3c13641620d104475fce4&oe=5675DCE8"
    },
     {
      "name":"Chez Camille",
      "id":"363349050420030",
      "lat":"48.857769215",
      "lng":"2.36074185325",
      "address":"Rue des Francs Bourgeois 75003 Paris",
      "pins": ["lebonbon","terrasse"],
      "picture":"https://fbcdn-profile-a.akamaihd.net/hprofile-ak-xpa1/v/t1.0-1/p50x50/1621973_633069390145035_4464165677848395939_n.jpg?oh=a43181a909f2d0d709240bbe9b4b685f&oe=5666A4FA&__gda__=1454020905_3224638e1cb1c39fe149b744c12ee042"
    },
     {
      "name":"Chez Janou",
      "id":"556351424411518",
      "lat":"48.8567085",
      "lng":"2.3671401",
      "address":"2 Rue Roger Verlomme 75003 Paris France 75003 Paris",
      "pins": ["timeout","terrasse"],
      "picture":"https://fbcdn-profile-a.akamaihd.net/hprofile-ak-xpa1/v/t1.0-1/p50x50/1470173_10151784897791375_66160195_n.jpg?oh=4b1b03c50f2782661f4281ccdbc894bb&oe=56A9117D&__gda__=1450904787_af1144d4e7ab7dacf3db61dc4417aaec"
    },
     {
      "name":"Chez Jeannette",
      "id":"134247690012869",
      "lat":"48.8715442534",
      "lng":"2.35360950668",
      "address":"47 rue du faubourg St.Denis  75010 Paris",
      "pins": ["terrasse","bieres"],
      "picture":"https://fbcdn-profile-a.akamaihd.net/hprofile-ak-ash2/v/t1.0-1/p50x50/1385923_439143812856587_2071255159_n.jpg?oh=f6a9e5fd0d6e2caaca90492b302f4a37&oe=565EF6B7&__gda__=1450895670_2631b7b0b77fa26411eda44c2504ac1f"
    },
     {
      "name":"Chez Justine",
      "id":"1656294281271884",
      "lat":"48.8667023095",
      "lng":"2.37779823045",
      "address":"96 rue Oberkampf 75011 Paris",
      "pins": ["terrasse","rock"],
      "picture":"https://fbcdn-profile-a.akamaihd.net/hprofile-ak-xfa1/v/t1.0-1/p50x50/11037477_1656692431232069_8619684565184711375_n.jpg?oh=25a091bc8ebfa7b0856833e241e6fc8b&oe=566FA9CD&__gda__=1450961227_3c1c8780668176867d6318619728dc3a"
    },
     {
      "name":"Chez Perruque",
      "id":"1557954191105523",
      "lat":"48.8757301716",
      "lng":"2.348721838",
      "address":"55 rue de Paradis   75010 Paris",
      "pins": ["terrasse","lebonbon"],
      "picture":"https://fbcdn-profile-a.akamaihd.net/hprofile-ak-xpf1/v/t1.0-1/p50x50/11262435_1635506166683658_7237872198644710456_n.jpg?oh=4e9b2458e7010569b9703d5962392f80&oe=56701B81&__gda__=1450611438_ce336e844aef53a3f3a3c7e5c40b6903"
    },
     {
      "name":"Chez Prune",
      "id":"770324039700053",
      "lat":"48.8715782",
      "lng":"2.3645",
      "address":"36 rue Beaurepaire 75010 Paris",
      "pins": ["bieres","terrasse"],
      "picture":"https://scontent.xx.fbcdn.net/hprofile-xpf1/v/t1.0-1/p50x50/10885185_10152445715566556_8522491732122729490_n.jpg?oh=37371db71955e0fc77282001ba27718c&oe=566CD890"
    },
     {
      "name":"Chez Vous",
      "id":"71536333042",
      "lat":"48.8776703",
      "lng":"2.33986",
      "address":"15 rue Choron 75009 Paris",
      "pins": ["terrasse","timeout"],
      "picture":"https://fbcdn-profile-a.akamaihd.net/hprofile-ak-xtp1/v/t1.0-1/c0.19.50.50/p50x50/10458117_10152249112063043_7812728102213848487_n.jpg?oh=e3382b907a30377b1e44fe0535826771&oe=567311C6&__gda__=1451217920_cf3a423ebac59ea83d8daa513839e31c"
    },
     {
      "name":"Chop'In",
      "id":"194401103937285",
      "lat":"48.8769798",
      "lng":"2.3343301",
      "address":"52 Rue St Lazare 75009 Paris",
      "pins": ["bieres","terrasse"],
      "picture":"https://scontent.xx.fbcdn.net/hprofile-prn2/v/t1.0-1/c32.12.149.149/s50x50/225093_194402137270515_7506588_n.jpg?oh=2423189ceb83b74c9947ddaab78d42d5&oe=566A3BD8"
    },
     {
      "name":"Chouff'Bar",
      "id":"229002500499882",
      "lat":"48.8429985",
      "lng":"2.34866",
      "address":"16 Rue Du Pot De Fer 75005 Paris",
      "pins": ["terrasse","bieres"],
      "picture":"https://scontent.xx.fbcdn.net/hprofile-xaf1/v/t1.0-1/p50x50/400093_257850014281797_1745982355_n.jpg?oh=f7d739364f0e5aa0d99628e3d75aee2a&oe=5662E138"
    },
     {
      "name":"Cicciolina",
      "id":"276691699202492",
      "lat":"48.8657064471",
      "lng":"2.38199945526",
      "address":"11 rue Crespin Dugast 75011 Paris",
      "pins": ["rock","terrasse"],
      "picture":"https://fbcdn-profile-a.akamaihd.net/hprofile-ak-xfa1/v/t1.0-1/p50x50/1487317_309118132626515_4431436234476267619_n.jpg?oh=cbdad6f0fecd29951847d15330fb6b5c&oe=5674625E&__gda__=1450006796_161fbf901c307e06e7873f6a8045a5ab"
    },
     {
      "name":"Ciel de Paris",
      "id":"126816397429369",
      "lat":"48.8543234232",
      "lng":"2.38365315807",
      "address":"rue de Charonne 75011 Paris",
      "pins": ["terrasse","timeout"],
      "picture":"https://fbcdn-profile-a.akamaihd.net/static-ak/rsrc.php/v2/y5/r/j258ei8TIHu.png"
    },
     {
      "name":"Ciré Jaune",
      "id":"162046983950051",
      "lat":"48.8668289",
      "lng":"2.37643",
      "address":"112 rue Saint-Maur 75011 Paris",
      "pins": ["lebonbon","terrasse"],
      "picture":"https://scontent.xx.fbcdn.net/hprofile-prn2/v/t1.0-1/c66.66.828.828/s50x50/544083_162047673949982_279937041_n.jpg?oh=cfb2db688605249bdafbbff9c0445288&oe=56603B2B"
    },
     {
      "name":"Cité de la Mode et du Design - Les Docks",
      "id":"450757868274258",
      "lat":"48.8409569922",
      "lng":"2.37026738733",
      "address":"34, quai d'Austerlitz 75013 Paris",
      "pins": ["terrasse","bieres"],
      "picture":"https://scontent.xx.fbcdn.net/hprofile-xtp1/v/t1.0-1/p50x50/11258249_1077350518948320_4566332736871698331_n.jpg?oh=9f5fe3df0d43d03ba491c48e539deb23&oe=56604F5B"
    },
     {
      "name":"Clin's 20",
      "id":"296859200358881",
      "lat":"48.87286",
      "lng":"2.3960299",
      "address":"49 rue Pixérécourt 75020 Paris",
      "pins": ["terrasse","lebonbon"],
      "picture":"https://fbcdn-profile-a.akamaihd.net/hprofile-ak-xap1/v/t1.0-1/p50x50/1476057_667424856635645_446969033_n.jpg?oh=9486eb7c0cf593923e5d38fb29140c4b&oe=5674ADC1&__gda__=1449330762_d376dcb25c65d2c730a2471e1cf15dfd"
    },
     {
      "name":"Clown Bar",
      "id":"647115225346894",
      "lat":"48.8636179",
      "lng":"2.367141",
      "address":"114 rue Amelot 75011 Paris",
      "pins": ["rock","terrasse"],
      "picture":"https://fbexternal-a.akamaihd.net/safe_image.php?d=AQDdIHKJ6KqvcZgm&w=50&h=50&url=https%3A%2F%2Fupload.wikimedia.org%2Fwikipedia%2Fcommons%2Fthumb%2F6%2F64%2FLe_Clown-Bar_%2528int%25C3%25A9rieur%2529.jpg%2F720px-Le_Clown-Bar_%2528int%25C3%25A9rieur%2529.jpg&crop&fallback=hub_likes&prefix=q"
    },
     {
      "name":"Club 79",
      "id":"157926700955915",
      "lat":"48.8710971667",
      "lng":"2.30231242439",
      "address":"22 Rue Quentin-Bauchart 75008 Paris",
      "pins": ["lebonbon","terrasse"],
      "picture":"https://fbcdn-profile-a.akamaihd.net/static-ak/rsrc.php/v2/y5/r/j258ei8TIHu.png"
    },
     {
      "name":"Club des Saints-Pères",
      "id":"425920720804138",
      "lat":"48.8569717",
      "lng":"2.3321199",
      "address":"10 rue des Saint-Pères 75007 Paris",
      "pins": ["terrasse","bieres"],
      "picture":"https://scontent.xx.fbcdn.net/hprofile-xpt1/v/t1.0-1/c51.28.347.347/s50x50/18028_449305505132326_1179576027_n.jpg?oh=df9ec345fd673fda7e2979cbcb84c1ee&oe=5673EE17"
    },
     {
      "name":"Coeur Fou",
      "id":"332939823428098",
      "lat":"48.8659706",
      "lng":"2.34448",
      "address":"55 Rue Montmartre 75002 Paris",
      "pins": ["rock","terrasse"],
      "picture":"https://scontent.xx.fbcdn.net/hprofile-xfa1/v/t1.0-1/p50x50/10486057_691738037548273_792314666734825839_n.jpg?oh=d55c9828a58e04ada2a364bc482f1f14&oe=56718949"
    },
     {
      "name":"Comedy Club",
      "id":"219081991489125",
      "lat":"48.8706774813",
      "lng":"2.34845143883",
      "address":"42 Boulevard Bonne Nouvelle  75010 Paris",
      "pins": ["terrasse","rock"],
      "picture":"https://fbcdn-profile-a.akamaihd.net/hprofile-ak-xtf1/v/t1.0-1/p50x50/11403067_942169512513699_3104150188384868332_n.png?oh=179032ae1f4cf333572e0be0e02f96e5&oe=567F789E&__gda__=1450179800_9b5a0d34b22c434ed29085af4fa0bb29"
    },
     {
      "name":"Comptoir des Archives",
      "id":"289832414450463",
      "lat":"48.8599701",
      "lng":"2.3566101",
      "address":"41, rue des Archives 75004 Paris",
      "pins": ["terrasse","bieres"],
      "picture":"https://fbcdn-profile-a.akamaihd.net/hprofile-ak-prn2/v/t1.0-1/c9.0.50.50/p50x50/1240249_421845967915773_1164576639_n.jpg?oh=8d20a9d0624be3d02276df034050e07c&oe=566DCE2B&__gda__=1449305580_fd8279404f052caf65fde630fb713b5b"
    },
     {
      "name":"Connétable",
      "id":"524306420951855",
      "lat":"48.8614502",
      "lng":"2.3583801",
      "address":"55 rue des Archives 75003 Paris Paris",
      "pins": ["terrasse","lebonbon"],
      "picture":"https://fbcdn-profile-a.akamaihd.net/hprofile-ak-xap1/v/t1.0-1/p50x50/1528682_10202386637323134_1650644703_n.jpg?oh=f0a0efcea705cca5fd04cc30a5c1f363&oe=56AAFC8D&__gda__=1449543983_a479e9f2a942879d54a31a8b39780093"
    },
     {
      "name":"Connolly's Corner",
      "id":"197229523633334",
      "lat":"48.8410683",
      "lng":"2.3509099",
      "address":"12 rue de Mirbel 75005 Paris",
      "pins": ["lebonbon","terrasse"],
      "picture":"https://scontent.xx.fbcdn.net/hprofile-xfp1/v/t1.0-1/p50x50/11070417_10153942049754881_715548789553791820_n.jpg?oh=689a8c22bd09293be76af5b260e6ccab&oe=567AE692"
    },
     {
      "name":"Conserverie",
      "id":"671971619520655",
      "lat":"48.8532715",
      "lng":"2.33863",
      "address":"7 rue de l'Ancienne Comedie 75006 Paris 75006 Paris",
      "pins": ["bieres","terrasse"],
      "picture":"https://fbcdn-profile-a.akamaihd.net/static-ak/rsrc.php/v2/y5/r/j258ei8TIHu.png"
    },
     {
      "name":"Cordonnerie",
      "id":"154091774613706",
      "lat":"48.8652115",
      "lng":"2.35062",
      "address":"28, Rue Greneta 75010 Paris",
      "pins": ["terrasse","lebonbon"],
      "picture":"https://fbcdn-profile-a.akamaihd.net/hprofile-ak-xfa1/v/t1.0-1/p50x50/10462724_10152271213349426_8706978604596091753_n.jpg?oh=5cd06eea620b9a9215085e6fd4dd0551&oe=567B0A00&__gda__=1449242505_4ec620d241860c55001c3067b7660a06"
    },
     {
      "name":"Cork & Cavan",
      "id":"159732814047116",
      "lat":"48.8713417",
      "lng":"2.3657899",
      "address":"70 Quai de Jemmapes 75010 Paris",
      "pins": ["bieres","terrasse"],
      "picture":"https://fbcdn-profile-a.akamaihd.net/static-ak/rsrc.php/v2/yW/r/U2hFrus9i5v.png"
    },
     {
      "name":"Cotte Rôti",
      "id":"202253119840516",
      "lat":"48.8481903",
      "lng":"2.3766999",
      "address":"1 rue de Cotte PARIS Paris",
      "pins": ["terrasse","rock"],
      "picture":"https://fbcdn-profile-a.akamaihd.net/hprofile-ak-xap1/v/t1.0-1/p50x50/1001906_10202619262575122_900704286_n.jpg?oh=e2330d18718530e4f6df8b9cb883d9fe&oe=566975C5&__gda__=1450727442_fc4e2b3ea72a800a789cf6b2cd55346e"
    },
     {
      "name":"Cri du glaçon",
      "id":"410122562353308",
      "lat":"48.8671799",
      "lng":"2.3757401",
      "address":"74 rue Jean Pierre Timbaud 75011 Paris",
      "pins": ["lebonbon","terrasse"],
      "picture":"https://fbcdn-profile-a.akamaihd.net/hprofile-ak-xat1/v/t1.0-1/c0.0.50.50/p50x50/10351748_574441855921377_8052405386015609860_n.jpg?oh=d02f0ab967fcf017ff7bd4c11f924b82&oe=5668391E&__gda__=1450052470_a1be8d9f5298efe072ba4dbce7626e32"
    },
     {
      "name":"Cristal",
      "id":"131837983538180",
      "lat":"48.8678398",
      "lng":"2.2936499",
      "address":"11 Place des Etats Unis 75016 Paris",
      "pins": ["terrasse","bieres"],
      "picture":"https://fbcdn-profile-a.akamaihd.net/hprofile-ak-xta1/v/t1.0-1/p50x50/11745746_893341720721132_5827486355080644751_n.jpg?oh=640594ed21ed324419d7d171f2f56e22&oe=567326CF&__gda__=1451195966_a93932a855f4cf4cecd0e2a36242e568"
    },
     {
      "name":"Cubana Café",
      "id":"241302529325491",
      "lat":"48.842701",
      "lng":"2.3288901",
      "address":"45, 47 rue Vavin 75006 Paris",
      "pins": ["rock","terrasse"],
      "picture":"https://fbcdn-profile-a.akamaihd.net/hprofile-ak-xpf1/v/t1.0-1/p50x50/10509480_540992639356477_4437110204719806061_n.jpg?oh=8a9250c0cb73fd7c9faf4af530016667&oe=567E77FD&__gda__=1449680982_c1931916008ffdbee2252e95cb280303"
    },
     {
      "name":"Curio Parlor",
      "id":"122062917849629",
      "lat":"48.8504105",
      "lng":"2.35078",
      "address":"16, rue des bernardins 75005 Paris",
      "pins": ["lebonbon","terrasse"],
      "picture":"https://fbcdn-profile-a.akamaihd.net/hprofile-ak-xat1/t5.0-1/276808_122062917849629_1867249191_q.jpg"
    },
     {
      "name":"Cyrano",
      "id":"154563441248333",
      "lat":"48.8838387",
      "lng":"2.3264999",
      "address":"3 rue Biot 75017 Paris",
      "pins": ["terrasse","timeout"],
      "picture":"https://fbcdn-profile-a.akamaihd.net/static-ak/rsrc.php/v2/y5/r/j258ei8TIHu.png"
    },
     {
      "name":"Dame de Canton",
      "id":"130568203690029",
      "lat":"48.83464304",
      "lng":"2.37770931564",
      "address":"PORT DE LA GARE 75013 Paris",
      "pins": ["bieres","terrasse"],
      "picture":"https://fbcdn-profile-a.akamaihd.net/hprofile-ak-xap1/v/t1.0-1/p50x50/10625068_698430056903838_95105077054406185_n.jpg?oh=36012e37290e42e31ea453be2723af3f&oe=56701D37&__gda__=1450275232_760f210af83527d0366208dec6fe39d2"
    },
     {
      "name":"Danny Hills",
      "id":"523573521018064",
      "lat":"48.8789783882",
      "lng":"2.37819759221",
      "address":"84 avenue Secrétan  75019  Paris",
      "pins": ["terrasse","rock"],
      "picture":"https://scontent.xx.fbcdn.net/hprofile-xap1/v/t1.0-1/c1.0.50.50/p50x50/10352740_725189164189831_7387838096612525089_n.jpg?oh=103b0ce7c9f8e4ffdea52b559f0c35b1&oe=566BE799"
    },
     {
      "name":"Dédé la Frite",
      "id":"222578720883",
      "lat":"48.8697891",
      "lng":"2.34255",
      "address":"52 rue notre dame des victoires 75002 Paris",
      "pins": ["lebonbon","terrasse"],
      "picture":"https://fbcdn-profile-a.akamaihd.net/hprofile-ak-xtf1/v/t1.0-1/c106.23.287.287/s50x50/554211_10151748852960884_1920706602_n.jpg?oh=323b9084a07d3efc40f430480e86d894&oe=566EAF38&__gda__=1450864128_020133cbc2933d428ebc14399d820ab2"
    },
     {
      "name":"Dégustation",
      "id":"688378874583215",
      "lat":"48.8518105",
      "lng":"2.34673",
      "address":"65 rue de Galande 75005 75005 Paris",
      "pins": ["terrasse","bieres"],
      "picture":"https://fbcdn-profile-a.akamaihd.net/hprofile-ak-xpa1/v/t1.0-1/p50x50/10624852_688381684582934_5150090549999347871_n.jpg?oh=e0eea0a896f038dd34243a789b9ac30c&oe=5663667F&__gda__=1450286435_c18627a660ceafe6b99fdce0ff0d17d4"
    },
     {
      "name":"Démon",
      "id":"292883402230",
      "lat":"48.8659897",
      "lng":"2.3808999",
      "address":"22 avenue Jean Aicard 75011 Paris",
      "pins": ["lebonbon","terrasse"],
      "picture":"https://scontent.xx.fbcdn.net/hprofile-xaf1/v/t1.0-1/p50x50/423221_10150586579067231_1858428285_n.jpg?oh=747d558e3577bb719c4327b782b44ee1&oe=56A8BAFD"
    },
     {
      "name":"Dépanneur Terrasse",
      "id":"343467735824845",
      "lat":"48.882309",
      "lng":"2.3331101",
      "address":"25 rue de Douai 75009 Paris",
      "pins": ["terrasse","bieres"],
      "picture":"https://scontent.xx.fbcdn.net/hprofile-xaf1/v/t1.0-1/p50x50/10387633_10205085844165270_1205400200420356033_n.jpg?oh=42571149b119a19493acb4c67b271aa5&oe=567BA3D7"
    },
     {
      "name":"Dernier Bar Avant la Fin du Monde",
      "id":"270617966366652",
      "lat":"48.8581180039",
      "lng":"2.34644726993",
      "address":"19, avenue Victoria 75001 Paris",
      "pins": ["bieres","terrasse"],
      "picture":"https://fbcdn-profile-a.akamaihd.net/hprofile-ak-xpf1/v/t1.0-1/p50x50/10411973_646358715459240_4210437439845970819_n.png?oh=6f8a68e85128bac8bf318cd05bf5cdac&oe=5665CA6F&__gda__=1453960644_807da051bc17f0da98cc89651e4ebed4"
    },
     {
      "name":"Des Bulles Sinon Rien",
      "id":"273081866155015",
      "lat":"48.858799",
      "lng":"2.3622",
      "address":"16 rue Elzevir 75003 Paris",
      "pins": ["lebonbon","terrasse"],
      "picture":"https://scontent.xx.fbcdn.net/hprofile-xfa1/v/t1.0-1/c66.66.828.828/s50x50/320980_274404802689388_1226952109_n.jpg?oh=d6f97220513240b0765399817f4a0faa&oe=565EA13B"
    },
     {
      "name":"Dirty Dick",
      "id":"504787289561262",
      "lat":"48.8815533521",
      "lng":"2.33742639786",
      "address":"10, rue Frochot 75009 Paris",
      "pins": ["terrasse","lebonbon"],
      "picture":"https://scontent.xx.fbcdn.net/hprofile-xaf1/v/t1.0-1/c0.3.50.50/p50x50/1538773_689494124423910_354944137_n.png?oh=5da04d9461e8df49308304e1b278f3db&oe=5671C5D3"
    },
     {
      "name":"Divan du Monde",
      "id":"260442483988527",
      "lat":"48.8824501",
      "lng":"2.33956",
      "address":"75 rue des Martyrs 75018 Paris",
      "pins": ["terrasse","lebonbon"],
      "picture":"https://scontent.xx.fbcdn.net/hprofile-xlf1/v/t1.0-1/c0.1.50.50/p50x50/1660851_742354422463995_1700728259_n.jpg?oh=14a86e2cf3aef4d0a253c173ea9de67b&oe=5664E862"
    },
     {
      "name":"Divette de Montmartre",
      "id":"162370170451837",
      "lat":"48.8912888",
      "lng":"2.3393199",
      "address":"136 rue marcadet 75018 Paris",
      "pins": ["rock","terrasse"],
      "picture":"https://scontent.xx.fbcdn.net/hprofile-frc3/v/t1.0-1/c9.0.50.50/p50x50/1010921_10151841715204566_1880147517_n.jpg?oh=7b82e22bf6a69f76262ce295c9c6dc1f&oe=566C68A4"
    },
     {
      "name":"Djoon",
      "id":"44309696400",
      "lat":"48.8366394",
      "lng":"2.3716099",
      "address":"22 Boulevard Vincent Auriol 75013 Paris",
      "pins": ["bieres","terrasse"],
      "picture":"https://scontent.xx.fbcdn.net/hprofile-xta1/v/t1.0-1/p50x50/10690085_10152502599661401_5000342072818026896_n.jpg?oh=03a265fbd312f64ab0e269c5cc7569b4&oe=56641CB7"
    },
     {
      "name":"Dokhan's Bar",
      "id":"478289662226012",
      "lat":"48.8663597",
      "lng":"2.2867401",
      "address":"117 rue de Lauriston 75116 Paris",
      "pins": ["terrasse","timeout"],
      "picture":"https://fbcdn-profile-a.akamaihd.net/static-ak/rsrc.php/v2/yW/r/U2hFrus9i5v.png"
    },
     {
      "name":"Doobie's",
      "id":"101694826563862",
      "lat":"48.8689384",
      "lng":"2.3046401",
      "address":"2 rue Robert Estienne 75008 Paris",
      "pins": ["terrasse","timeout"],
      "picture":"https://scontent.xx.fbcdn.net/hprofile-xpl1/v/t1.0-1/p50x50/11960082_892851224114881_3471443022817645331_n.jpg?oh=84f258b5dcae4fedaf50f2cb7457fa06&oe=56788B48"
    },
     {
      "name":"Droguerie Moderne",
      "id":"209094755799623",
      "lat":"48.8670998",
      "lng":"2.3749101",
      "address":"61bis rue Jean Pierre Timbaud 75011 Paris",
      "pins": ["terrasse","lebonbon"],
      "picture":"https://fbcdn-profile-a.akamaihd.net/static-ak/rsrc.php/v2/yW/r/U2hFrus9i5v.png"
    },
     {
      "name":"Drôle D'Endroit Pour Une Rencontre",
      "id":"162240100453041",
      "lat":"48.8649597",
      "lng":"2.34694",
      "address":"58 Rue Montorgueil 75002 Paris",
      "pins": ["lebonbon","terrasse"],
      "picture":"https://fbcdn-profile-a.akamaihd.net/hprofile-ak-xap1/v/t1.0-1/p50x50/10431516_10152486645307608_631609033546698395_n.jpg?oh=14517f54ad3302fd6dffb2ae9ff27515&oe=56663A70&__gda__=1450139057_4c44bf2a92a67d217794d46b9d5f4168"
    },
     {
      "name":"Duke’s Bar",
      "id":"111440800610",
      "lat":"48.8693314",
      "lng":"2.3311",
      "address":"13 rue de la Paix 75002 Paris",
      "pins": ["terrasse","timeout"],
      "picture":"https://fbcdn-profile-a.akamaihd.net/hprofile-ak-xfa1/v/t1.0-1/c253.0.598.598/s50x50/485963_10152624448015611_1417311818_n.jpg?oh=f59ffd990aa7acfd7b13547ff4d05d42&oe=567AE548&__gda__=1449814944_33667662d13ee372e61b77325c5b7c23"
    },
     {
      "name":"Duplex",
      "id":"167035516648935",
      "lat":"48.8256215345",
      "lng":"2.37431147847",
      "address":"first street masr wl soubin 75013 Paris",
      "pins": ["lebonbon","terrasse"],
      "picture":"https://fbcdn-profile-a.akamaihd.net/static-ak/rsrc.php/v2/y5/r/j258ei8TIHu.png"
    },
     {
      "name":"Durand Dupont",
      "id":"247159712008533",
      "lat":"48.8807487",
      "lng":"2.2755899",
      "address":"14 Place du marché 92200 Neuilly-sur-Seine",
      "pins": ["terrasse","rock"],
      "picture":"https://fbcdn-profile-a.akamaihd.net/hprofile-ak-xfa1/v/t1.0-1/c171.37.459.459/s50x50/424436_319406031450567_216155503_n.jpg?oh=42435f64bf3ef281d36df95e4803cd2e&oe=56650BDE&__gda__=1449688046_6c8e86afdb12bce24be26e03bc71bd4b"
    },
     {
      "name":"Ebéniste du Vin",
      "id":"224207044313639",
      "lat":"48.8860397",
      "lng":"2.3180499",
      "address":"72 rue Boursault  75017 Paris",
      "pins": ["bieres","terrasse"],
      "picture":"https://fbcdn-profile-a.akamaihd.net/hprofile-ak-prn2/v/t1.0-1/p50x50/548540_308990292501980_1449767709_n.jpg?oh=798f942033a8e4bb6c355c1a66f10e3e&oe=56713192&__gda__=1450239240_b39f72b829d739fa7da793094cbf7a8a"
    },
     {
      "name":"Ébéniste du vin",
      "id":"224207044313639",
      "lat":"48.8860397",
      "lng":"2.3180499",
      "address":"72 rue Boursault  75017 Paris",
      "pins": ["terrasse","bieres"],
      "picture":"https://fbcdn-profile-a.akamaihd.net/hprofile-ak-prn2/v/t1.0-1/p50x50/548540_308990292501980_1449767709_n.jpg?oh=798f942033a8e4bb6c355c1a66f10e3e&oe=56713192&__gda__=1450239240_b39f72b829d739fa7da793094cbf7a8a"
    },
     {
      "name":"Edgar",
      "id":"555617654459073",
      "lat":"48.8683021267",
      "lng":"2.35013563337",
      "address":"31 rue d'Alexandrie 75002 Paris",
      "pins": ["terrasse","bieres"],
      "picture":"https://fbcdn-profile-a.akamaihd.net/hprofile-ak-xfl1/v/t1.0-1/p50x50/10012483_977959938891507_3493064278756821937_n.jpg?oh=d80ee4ddd26cf80d064b46643b5cd62c&oe=56652DA6&__gda__=1449377629_9b4d2fc10ed978389d68ca5bb7449a59"
    },
     {
      "name":"Embuscade",
      "id":"312211212176898",
      "lat":"48.8646202",
      "lng":"2.36957",
      "address":"31,rue de Crussol 75011 Paris",
      "pins": ["terrasse","lebonbon"],
      "picture":"https://fbcdn-profile-a.akamaihd.net/hprofile-ak-xfa1/v/t1.0-1/c15.15.188.188/s50x50/405074_347877778610241_1661603024_n.jpg?oh=9107cd3bf3d6a27b8d5467fa6a88012d&oe=567B40FB&__gda__=1450758091_e7ab9e2285224ba58d8c3a9f21193795"
    },
     {
      "name":"En Vrac",
      "id":"394550720640770",
      "lat":"48.8902512",
      "lng":"2.3613501",
      "address":"2, rue l'olive 75018 Paris",
      "pins": ["terrasse","timeout"],
      "picture":"https://fbcdn-profile-a.akamaihd.net/hprofile-ak-xpf1/v/t1.0-1/p50x50/10387566_660099947419178_7822352788899427242_n.jpg?oh=755b1a827e60e033363a0629a6f6a378&oe=566589C2&__gda__=1449104233_7cdfca71262c19024831234a5c261306"
    },
     {
      "name":"Enfants de Paris",
      "id":"1578687705727428",
      "lat":"48.8613396",
      "lng":"2.3584299",
      "address":"60, Rue des Archives 75007 Paris",
      "pins": ["lebonbon","terrasse"],
      "picture":"https://scontent.xx.fbcdn.net/hprofile-xpa1/v/t1.0-1/c4.0.50.50/p50x50/11057773_1578691979060334_326829213575988988_n.jpg?oh=b65b235a834ec7d3929e7febc1d6d2a7&oe=566B18DA"
    },
     {
      "name":"épicerie Saint Sabin",
      "id":"230191067125528",
      "lat":"48.855280382",
      "lng":"2.37194721505",
      "address":"13, rue Saint Sabin 75011 Paris",
      "pins": ["timeout","terrasse"],
      "picture":"https://scontent.xx.fbcdn.net/hprofile-xpa1/v/t1.0-1/c0.0.50.50/p50x50/1374787_332584763552824_231988873_n.png?oh=c5a7c14b82eaf36d4787167de5d1e80e&oe=5671DBAA"
    },
     {
      "name":"Epistrophe",
      "id":"194422367308355",
      "lat":"48.8636398",
      "lng":"2.36253",
      "address":"17, rue de Picardie 75003 Paris",
      "pins": ["terrasse","lebonbon"],
      "picture":"https://fbcdn-profile-a.akamaihd.net/hprofile-ak-ash4/v/t1.0-1/p50x50/1545209_576131079137480_1760176693_n.jpg?oh=fa1915a60a0e9c00eda2e43b2096087b&oe=56723AE4&__gda__=1450845006_b8ba89b272f919d68d9059bdceea1feb"
    },
     {
      "name":"Epoque",
      "id":"795415023824402",
      "lat":"48.8670952751",
      "lng":"2.33532927375",
      "address":"36 rue des petits champs 75002 Paris",
      "pins": ["timeout","terrasse"],
      "picture":"https://fbcdn-profile-a.akamaihd.net/hprofile-ak-xtp1/v/t1.0-1/c8.0.50.50/p50x50/10644900_829453357087235_7811985666349502176_n.jpg?oh=15e60eade688d88307b7c02fff0847bb&oe=5673BAA8&__gda__=1449471263_e09020a1e1746542e84b97cb5530bbc6"
    },
     {
      "name":"Etage",
      "id":"132473260137700",
      "lat":"48.8537541801",
      "lng":"2.33804603477",
      "address":"Rue de Buci 75006 Paris",
      "pins": ["lebonbon","terrasse"],
      "picture":"https://fbcdn-profile-a.akamaihd.net/static-ak/rsrc.php/v2/yW/r/U2hFrus9i5v.png"
    },
     {
      "name":"Etages",
      "id":"132473260137700",
      "lat":"48.8537541801",
      "lng":"2.33804603477",
      "address":"Rue de Buci 75006 Paris",
      "pins": ["terrasse","bieres"],
      "picture":"https://fbcdn-profile-a.akamaihd.net/static-ak/rsrc.php/v2/yW/r/U2hFrus9i5v.png"
    },
     {
      "name":"Etiquette",
      "id":"791405667574116",
      "lat":"48.8768387",
      "lng":"2.3375399",
      "address":"20 rue Saint-Lazare 75009 Paris",
      "pins": ["timeout","terrasse"],
      "picture":"https://fbcdn-profile-a.akamaihd.net/hprofile-ak-xpf1/v/t1.0-1/c0.0.50.50/p50x50/10389301_791406450907371_2827453936098640202_n.jpg?oh=2c78ab87c78b2925d220ec4c9376cf50&oe=566766AD&__gda__=1453978616_e6f966b91ad628e50241db2acfc531ab"
    },
     {
      "name":"Etna",
      "id":"129234385438",
      "lat":"48.8136787",
      "lng":"2.3926001",
      "address":"15 rue Maurice Grandcoing 94200 Ivry-sur-Seine",
      "pins": ["terrasse","rock"],
      "picture":"https://fbcdn-profile-a.akamaihd.net/hprofile-ak-xpt1/v/t1.0-1/p50x50/11034917_10153201910085439_3105302316094685397_n.jpg?oh=377ee07fe6b76b18355f7f3fa87cd350&oe=567EAB7C&__gda__=1450016513_2d4f7d1c38df4744162edbc679359634"
    },
     {
      "name":"Expérimental",
      "id":"832880536726612",
      "lat":"48.8660980709",
      "lng":"2.34829374181",
      "address":"37, rue Saint Sauveur 75002 Paris",
      "pins": ["timeout","terrasse"],
      "picture":"https://fbcdn-profile-a.akamaihd.net/hprofile-ak-xpf1/v/t1.0-1/c1.0.50.50/p50x50/1901308_832890593392273_4119947051416571418_n.jpg?oh=c6ef735e91201d774ec9a4f7c600746d&oe=567922DA&__gda__=1450358251_95789a2bceae415f4a0d3a9d4bf3af6d"
    },
     {
      "name":"Experimental Cocktail Club",
      "id":"832880536726612",
      "lat":"48.8660980709",
      "lng":"2.34829374181",
      "address":"37, rue Saint Sauveur 75002 Paris",
      "pins": ["terrasse","lebonbon"],
      "picture":"https://fbcdn-profile-a.akamaihd.net/hprofile-ak-xpf1/v/t1.0-1/c1.0.50.50/p50x50/1901308_832890593392273_4119947051416571418_n.jpg?oh=c6ef735e91201d774ec9a4f7c600746d&oe=567922DA&__gda__=1450358251_95789a2bceae415f4a0d3a9d4bf3af6d"
    },
     {
      "name":"Expérimental Cocktail Club",
      "id":"832880536726612",
      "lat":"48.8660980709",
      "lng":"2.34829374181",
      "address":"37, rue Saint Sauveur 75002 Paris",
      "pins": ["timeout","terrasse"],
      "picture":"https://fbcdn-profile-a.akamaihd.net/hprofile-ak-xpf1/v/t1.0-1/c1.0.50.50/p50x50/1901308_832890593392273_4119947051416571418_n.jpg?oh=c6ef735e91201d774ec9a4f7c600746d&oe=567922DA&__gda__=1450358251_95789a2bceae415f4a0d3a9d4bf3af6d"
    },
     {
      "name":"Fanfan by la Tulipe",
      "id":"283076115213822",
      "lat":"48.8293842275",
      "lng":"2.35144145261",
      "address":"14 rue des cinq Diamants 75013 Paris",
      "pins": ["timeout","terrasse"],
      "picture":"https://fbcdn-profile-a.akamaihd.net/hprofile-ak-xpa1/v/t1.0-1/c11.0.50.50/p50x50/10502112_283077268547040_4146834960984971994_n.png?oh=4d9dfcc46e4d3d8010f8cf4cf36bd496&oe=566EE62A&__gda__=1449995459_c5e9e6bab3b6cf744a4d14c670e1bc6c"
    },
     {
      "name":"Favela Chic",
      "id":"173899459419435",
      "lat":"48.868309",
      "lng":"2.3660901",
      "address":"18 rue du Faubourg du Temple 75011 Paris",
      "pins": ["terrasse","lebonbon"],
      "picture":"https://scontent.xx.fbcdn.net/hprofile-prn2/v/t1.0-1/c55.114.691.691/s50x50/533999_236400626502651_1447096546_n.jpg?oh=ab467e3126fb3bf4b5eef53d04efcd1a&oe=567A4556"
    },
     {
      "name":"Favorite",
      "id":"124417607685324",
      "lat":"48.8552589",
      "lng":"2.3613999",
      "address":"4, rue de rivoli  75004 Paris",
      "pins": ["timeout","terrasse"],
      "picture":"https://scontent.xx.fbcdn.net/hprofile-xfa1/v/t1.0-1/c80.28.347.347/s50x50/417138_124432714350480_1749664285_n.jpg?oh=93d2b3ca356ab94cd5ce54a0ce04fb1b&oe=5673DFDE"
    },
     {
      "name":"Ferme Saint Simon",
      "id":"410542775726567",
      "lat":"48.8565483",
      "lng":"2.32411",
      "address":"6 Rue de Saint-Simon 75007 Paris",
      "pins": ["timeout","terrasse"],
      "picture":"https://scontent.xx.fbcdn.net/hprofile-xfa1/v/t1.0-1/c21.21.259.259/s50x50/1238966_444698128977698_1698857062_n.jpg?oh=7cf280953fb15dd06d5ec7ee41bbb530&oe=567722BF"
    },
     {
      "name":"Fish Club",
      "id":"451233414968795",
      "lat":"48.8639603",
      "lng":"2.3435099",
      "address":"58, rue Jean Jacques ROUSSEAU 75001 Paris",
      "pins": ["terrasse","rock"],
      "picture":"https://fbcdn-profile-a.akamaihd.net/hprofile-ak-xpf1/v/t1.0-1/p50x50/10981917_785835964841870_907453785868909822_n.png?oh=eb1df94c5589103d698be58a45e81a3e&oe=56A95F13&__gda__=1453893743_f88ebc100ca4a9f6e091bb70d6035c2d"
    },
     {
      "name":"Flaq",
      "id":"174422242590053",
      "lat":"48.8606415",
      "lng":"2.35039",
      "address":"36 rue Quincampoix 75004 Paris",
      "pins": ["timeout","terrasse"],
      "picture":"https://scontent.xx.fbcdn.net/hprofile-xtp1/v/t1.0-1/p50x50/11709651_991993867499549_1373800747101497714_n.jpg?oh=1f1d0c3816d7d4df1c7b9fc14efece40&oe=5663CC1A"
    },
     {
      "name":"Flèche d'Or",
      "id":"1390537727871094",
      "lat":"48.859392",
      "lng":"2.403014",
      "address":"102 bis rue de bagnolet 75020 Paris",
      "pins": ["lebonbon","terrasse"],
      "picture":"https://fbexternal-a.akamaihd.net/safe_image.php?d=AQDEt3bUvBD8KBvF&w=50&h=50&url=http%3A%2F%2Fupload.wikimedia.org%2Fwikipedia%2Fcommons%2Fthumb%2F9%2F97%2FFl%25C3%25A8che_d%2527Or_%2528Paris%2529_01_rectilin%25C3%25A9aire.jpg%2F720px-Fl%25C3%25A8che_d%2527Or_%2528Paris%2529_01_rectilin%25C3%25A9aire.jpg&crop&fallback=hub_likes&prefix=q"
    },
     {
      "name":"Floyd's Bar & Grill",
      "id":"611974608821175",
      "lat":"48.8717194",
      "lng":"2.35232",
      "address":"11 rue d'Enghien  75010 Paris",
      "pins": ["bieres","terrasse"],
      "picture":"https://scontent.xx.fbcdn.net/hprofile-xpf1/v/t1.0-1/p50x50/10416596_896378763714090_9202359770570851486_n.jpg?oh=f06bcb436cbf1de7cc7aa3b243592b23&oe=5663D9EF"
    },
     {
      "name":"Flûte l'Etoile",
      "id":"106368493746",
      "lat":"48.8775711",
      "lng":"2.29497",
      "address":"19 rue de l'Etoile 75017 Paris",
      "pins": ["lebonbon","terrasse"],
      "picture":"https://fbcdn-profile-a.akamaihd.net/hprofile-ak-xpf1/t5.0-1/50286_106368493746_5666336_q.jpg"
    },
     {
      "name":"Footsie",
      "id":"148253441883496",
      "lat":"48.8694611",
      "lng":"2.3319199",
      "address":"10 Rue Daunou 75002 Paris",
      "pins": ["rock","terrasse"],
      "picture":"https://fbcdn-profile-a.akamaihd.net/static-ak/rsrc.php/v2/yW/r/U2hFrus9i5v.png"
    },
     {
      "name":"Fourbi",
      "id":"608063365883040",
      "lat":"48.8562813",
      "lng":"2.30741",
      "address":"25 bis rue duvivier 75007 Paris",
      "pins": ["rock","terrasse"],
      "picture":"https://fbcdn-profile-a.akamaihd.net/hprofile-ak-xpa1/v/t1.0-1/c30.0.50.50/p50x50/1601196_678487055507337_1039152_n.jpg?oh=2faad7d95da23dfa02363b76a8958e20&oe=566CD152&__gda__=1450005121_560dc15ca3182c0f1e99c8c853bdf58c"
    },
     {
      "name":"Francis Labutte",
      "id":"265519693465473",
      "lat":"48.889679",
      "lng":"2.3426001",
      "address":"122 rue Caulaincourt 75018 Paris",
      "pins": ["lebonbon","terrasse"],
      "picture":"https://scontent.xx.fbcdn.net/hprofile-xaf1/v/t1.0-1/p50x50/254618_265624076788368_3190339_n.jpg?oh=cbe383370927b8355c78df595c48d4dc&oe=567A34E2"
    },
     {
      "name":"Frange",
      "id":"747843658622522",
      "lat":"48.8543587",
      "lng":"2.3389599",
      "address":"38 Rue Dauphine 75006 Paris",
      "pins": ["terrasse","timeout"],
      "picture":"https://scontent.xx.fbcdn.net/hprofile-xpf1/v/t1.0-1/c1.0.50.50/p50x50/11036950_888582347881985_7079448170638215436_n.jpg?oh=1964351e28bc6e4002d85fb43e968f19&oe=566FFD75"
    },
     {
      "name":"Frenchie",
      "id":"599546870172931",
      "lat":"48.8676491",
      "lng":"2.34761",
      "address":"9, rue du Nil 75002 Paris",
      "pins": ["bieres","terrasse"],
      "picture":"https://scontent.xx.fbcdn.net/hprofile-xap1/v/t1.0-1/c12.0.50.50/p50x50/1478988_652500974877520_2237638803513581964_n.jpg?oh=85d1ca16acfed38ba4e2db1404807038&oe=56AAD69E"
    },
     {
      "name":"Frog & Britsh Library",
      "id":"161582397204317",
      "lat":"48.8308716",
      "lng":"2.37675",
      "address":"114 ave de France 75013 Paris",
      "pins": ["terrasse","timeout"],
      "picture":"https://scontent.xx.fbcdn.net/hprofile-xpt1/v/t1.0-1/p50x50/11401186_1097395966956284_5615318338859409992_n.jpg?oh=5f17c897029fb514f832ad75d825db8c&oe=5662F455"
    },
     {
      "name":"Frog Hop House",
      "id":"372299132952927",
      "lat":"48.8688393",
      "lng":"2.3296199",
      "address":"10 rue des Capucines 75002 Paris",
      "pins": ["terrasse","lebonbon"],
      "picture":"https://scontent.xx.fbcdn.net/hprofile-xpf1/v/t1.0-1/p50x50/11058178_438105796372260_6466677571174443638_n.jpg?oh=e30aabb5489b440740dfcc5ecb83e686&oe=568045E9"
    },
     {
      "name":"Frog Revolution",
      "id":"759163537477981",
      "lat":"48.8538818",
      "lng":"2.3682599",
      "address":"9 rue de la Bastille 75004 Paris",
      "pins": ["terrasse","lebonbon"],
      "picture":"https://fbcdn-profile-a.akamaihd.net/hprofile-ak-xap1/v/t1.0-1/p50x50/11407185_928599733867693_4195987519756457847_n.jpg?oh=5b311713440a5079a9b0d7a200b6f043&oe=56635CB6&__gda__=1450901376_b6641aa3280befbdd9b15dabbd945002"
    },
     {
      "name":"Fusée",
      "id":"170709042974176",
      "lat":"48.8621597",
      "lng":"2.35201",
      "address":"168 Rue St Martin 75003 Paris",
      "pins": ["terrasse","lebonbon"],
      "picture":"https://fbcdn-profile-a.akamaihd.net/hprofile-ak-xpf1/v/t1.0-1/p50x50/10155340_946126002099139_5013444218187122889_n.jpg?oh=abfa8a6e7cfe72f206fa701d3e5c50e4&oe=56A970DA&__gda__=1451098481_c88816874175b7cc128b728a0a762910"
    },
     {
      "name":"Glass",
      "id":"517858384897639",
      "lat":"48.8815578947",
      "lng":"2.33744356758",
      "address":"7, Rue Frochot 75009 Paris",
      "pins": ["terrasse","lebonbon"],
      "picture":"https://fbcdn-profile-a.akamaihd.net/hprofile-ak-xpa1/v/t1.0-1/c13.0.50.50/p50x50/1385453_755571551126320_1262258572_n.jpg?oh=d1ace71625b6c9c4a473c9e881adec09&oe=565F06A3&__gda__=1451097630_2244f68481783fae453d4c88e2be6664"
    },
     {
      "name":"Gocce",
      "id":"212669868891356",
      "lat":"48.8774414",
      "lng":"2.3411801",
      "address":"7 rue Choron 75009 Paris",
      "pins": ["terrasse","lebonbon"],
      "picture":"https://scontent.xx.fbcdn.net/hprofile-frc3/v/t1.0-1/p50x50/601538_10201304461367429_1321167935_n.jpg?oh=92953d1dd5219ca4076b5c10774cf0eb&oe=565EE1E3"
    },
     {
      "name":"Gossima Ping Pong Bar",
      "id":"486600068080251",
      "lat":"48.8648682",
      "lng":"2.38276",
      "address":"4 rue Victor Gelez 75011 Paris",
      "pins": ["bieres","terrasse"],
      "picture":"https://fbcdn-profile-a.akamaihd.net/hprofile-ak-xpa1/v/t1.0-1/p50x50/10006242_649086848498238_1830733221_n.jpg?oh=19f8c8da7749c11044812133c424c822&oe=56741496&__gda__=1449019454_daa7c48f8c50805bab4ea19021b53bee"
    },